TYPE,NAME,FIPS,STATE_ABBREV,LON,LAT,CE_LIVES,NZ_LIVES,CE_COST,NZ_COST
CDP,"Oakville, CA",0653196,CA,-122.40677286747912,38.43837263056449,0.0,1.0,29249.292959803384,378046.90392430656
CDP,"Olowalu, HI",1557650,HI,-156.61672197870308,20.822264067283935,0.0,1.0,0.0,361406.4870164297
CDP,"East Honolulu, HI",1506290,HI,-157.7211818196242,21.297529718482753,0.0,594.0,0.0,219580885.2395798
CDP,"Rutherford, CA",0663400,CA,-122.42313632988309,38.456785285969595,0.0,2.0,67691.22084983069,874908.5490819667
CDP,"Launiupoko, HI",1544075,HI,-156.64221467565733,20.854284642211702,0.0,7.0,0.0,2666474.690791951
CDP,"Mahinahina, HI",1547050,HI,-156.65648084993643,20.95394529558993,0.0,10.0,0.0,3680175.8129112055
CDP,"Ahuimanu, HI",1500400,HI,-157.84032962033456,21.437890456641604,0.0,104.0,0.0,38573531.39472918
CDP,"Clearlake Oaks, CA",0613966,CA,-122.65919081201771,39.02190323389072,3.0,34.0,983194.0904916766,12707776.641912764
CDP,"Heeia, HI",1513900,HI,-157.82083103342222,21.420808457709683,0.0,58.0,0.0,21481648.996561933
CDP,"Hidden Valley Lake, CA",0633549,CA,-122.55051862345476,38.80035541960055,7.0,82.0,2367939.1886172253,30605597.20770065
CDP,"Ualapu'e, HI",1570700,HI,-156.8357376695768,21.07066480040331,0.0,5.0,0.0,1895180.3587446923
CDP,"Kahaluu, HI",1521200,HI,-157.84552508980707,21.457613466478563,0.0,58.0,0.0,21327390.130152483
CDP,"Lower Lake, CA",0644350,CA,-122.6085168485028,38.91182847689245,2.0,19.0,544872.5431369088,7042473.753104226
CDP,"Wailea, HI",1576925,HI,-156.4287100412117,20.687389550482916,0.0,72.0,0.0,26682376.49265202
CDP,"Middletown, CA",0647332,CA,-122.6221028715566,38.751877999390736,2.0,19.0,552393.789898001,7139685.814113332
CDP,"Fern Forest, HI",1507675,HI,-155.13237641317758,19.46471946417501,0.0,11.0,0.0,4125322.8274070513
CDP,"Hawaiian Acres, HI",1512450,HI,-155.04970756669198,19.532460767529017,0.0,32.0,0.0,11974895.42955658
CDP,"Hartley, CA",0632340,CA,-121.95229575246866,38.420227750831266,3.0,36.0,1027068.0299313817,13274846.997799221
CDP,"Kaneohe, HI",1528250,HI,-157.79208991827315,21.404836829237365,0.0,419.0,0.0,154858272.290357
CDP,"Hawaiian Beaches, HI",1512500,HI,-154.92240752563637,19.542110468984415,0.0,51.0,0.0,18920951.814165033
CDP,"Allendale, CA",0600996,CA,-121.98141094272434,38.4426588695784,2.0,22.0,641813.0569465428,8295429.206110499
CDP,"Hawaiian Paradise Park, HI",1512600,HI,-154.9693742149636,19.582700714526712,0.0,137.0,0.0,50658611.72886394
CDP,"Kaneohe Station, HI",1528400,HI,-157.75097338844273,21.445604322111876,0.0,117.0,0.0,43205704.78319586
CDP,"Maunawili, HI",1550750,HI,-157.77133646906944,21.366775225426792,0.0,24.0,0.0,8814792.366254384
CDP,"Hilo, HI",1514650,HI,-155.08679246602154,19.688261176012407,0.0,528.0,0.0,195088984.64994204
CDP,"Waimanalo, HI",1578050,HI,-157.73023856056952,21.34206960810625,0.0,67.0,0.0,24694640.814061657
city,"Sebastopol, CA",0670770,CA,-122.827716757325,38.39998656745507,9.0,107.0,3095828.736274047,40013564.44535982
CDP,"Keaau, HI",1532900,HI,-155.03720658351025,19.615567161673635,0.0,27.0,0.0,10048863.297529997
CDP,"Waimanalo Beach, HI",1578200,HI,-157.69738108784173,21.32880904002972,0.0,54.0,0.0,19837690.22025549
CDP,"Kurtistown, HI",1542800,HI,-155.07212340385337,19.583323680887837,0.0,16.0,0.0,5778096.396079749
city,"Cotati, CA",0616560,CA,-122.70914365450743,38.32789188602571,8.0,105.0,3038165.844439006,39268271.97762333
CDP,"Leilani Estates, HI",1544562,HI,-154.91574404104992,19.4658467412992,0.0,19.0,0.0,6959278.573157837
CDP,"Mountain View, HI",1553300,HI,-155.15978125239909,19.535685319376846,0.0,47.0,0.0,17453288.885183677
city,"American Canyon, CA",0601640,CA,-122.2584959625668,38.17716609300438,23.0,287.0,8287578.236639148,107116889.89192423
CDP,"Nanawale Estates, HI",1553975,HI,-154.9116914565749,19.504244441736137,0.0,17.0,0.0,6351057.899886284
CDP,"Eleele, HI",1507000,HI,-159.58016225632835,21.908789367975945,0.0,29.0,0.0,10577750.83950526
CDP,"Hanapepe, HI",1511800,HI,-159.58743389213345,21.914038931111403,0.0,32.0,0.0,11688414.677653313
CDP,"Orchidlands Estates, HI",1558775,HI,-155.01422538447386,19.556976660565677,0.0,34.0,0.0,12539042.140996862
city,"Vallejo, CA",0681666,CA,-122.23551847378573,38.11353292767785,136.0,1692.0,48845901.395829365,631332928.8835359
CDP,"Kaumakani, HI",1530650,HI,-159.62377771589067,21.91885212773859,0.0,9.0,0.0,3336398.9106272846
CDP,"Pahoa, HI",1559900,HI,-154.94545590389978,19.496108339133652,0.0,12.0,0.0,4429433.164042828
CDP,"Kekaha, HI",1535600,HI,-159.7142028817312,21.96869854769992,0.0,42.0,0.0,15677108.223383421
CDP,"Papaikou, HI",1561550,HI,-155.09623151062254,19.791962679790355,0.0,16.0,0.0,5857429.527376038
CDP,"Pakala Village, HI",1560350,HI,-159.64332104231818,21.944477579510846,0.0,4.0,0.0,1308996.666388776
city,"Vacaville, CA",0681554,CA,-121.96903046027995,38.35972350590763,110.0,1366.0,39418854.27488474,509488411.7487319
CDP,"Paukaa, HI",1561700,HI,-155.09496022262675,19.76245885079008,0.0,5.0,0.0,1842291.6045471663
CDP,"Volcano, HI",1572350,HI,-155.25207340062286,19.477963825670184,0.0,31.0,0.0,11410748.718116298
city,"Suisun City, CA",0675630,CA,-122.00852486838924,38.24711826314035,33.0,412.0,11882316.341398984,153578854.3842215
CDP,"Wainaku, HI",1578950,HI,-155.09848949140437,19.74488973949902,0.0,15.0,0.0,5399060.3243308095
city,"Fairfield, CA",0623182,CA,-122.0393032424965,38.25584463871004,124.0,1537.0,44376609.43157141,573567361.9639019
CDP,"Ainaloa, HI",1501085,HI,-154.9943880614301,19.521455126922696,0.0,40.0,0.0,14729518.044011075
CDP,"Kaunakakai, HI",1531100,HI,-156.99805170899592,21.090635109247792,0.0,41.0,0.0,15306886.944000738
CDP,"Eden Roc, HI",1506325,HI,-155.09578536482988,19.49174994345249,0.0,11.0,0.0,4173804.1854214505
CDP,"Bodega Bay, CA",0607260,CA,-123.02735493586866,38.32551284605817,1.0,16.0,451692.6527078208,5838124.330602505
CDP,"Fern Acres, HI",1507542,HI,-155.07854558238722,19.508224691512922,0.0,18.0,0.0,6663983.028888315
CDP,"Kualapuu, HI",1539500,HI,-157.05920303019593,21.156396315461787,0.0,24.0,0.0,9052791.760143252
CDP,"Maunaloa, HI",1550150,HI,-157.21221289552537,21.133634262479475,0.0,5.0,0.0,1679217.9457714597
CDP,"Occidental, CA",0653266,CA,-122.93495676302508,38.40038005022065,1.0,16.0,467988.68735685415,6048750.462788905
CDP,"Hana, HI",1511350,HI,-156.01104710606756,20.771958311028566,0.0,15.0,0.0,5518060.021275244
CDP,"Bloomfield, CA",0607036,CA,-122.85023774920452,38.3182852787652,0.0,5.0,140396.60620705626,1814625.1388366714
CDP,"Anahola, HI",1502200,HI,-159.3155905311788,22.145211311757055,0.0,27.0,0.0,9863752.657838656
CDP,"Halaula, HI",1509700,HI,-155.78208644645645,20.225481569965744,0.0,6.0,0.0,2080290.9984360342
CDP,"Hanalei, HI",1511500,HI,-159.49772791189477,22.20399143974917,0.0,5.0,0.0,2000957.8671397453
CDP,"Bodega, CA",0607246,CA,-122.97116459113516,38.34884179616099,0.0,3.0,92344.1963445221,1193548.0823895964
CDP,"Hawaiian Ocean View, HI",1512530,HI,-155.77464440726243,19.096790051499212,0.0,53.0,0.0,19758357.088959202
CDP,"Carmet, CA",0611376,CA,-123.07185698243826,38.37445273898673,0.0,1.0,19638.810987296558,253831.4926348916
CDP,"Hawi, HI",1513600,HI,-155.83055072813968,20.239119243414734,0.0,13.0,0.0,4790839.651059258
CDP,"Sereno Mar, CA",0671000,CA,-123.07314366872484,38.38367437602856,0.0,2.0,52648.7273276461,680484.4270637518
CDP,"Holualoa, HI",1515700,HI,-155.92660717349582,19.62383700276397,0.0,103.0,0.0,38212124.90771275
CDP,"Hanamaulu, HI",1511650,HI,-159.35015031184037,21.995491236186275,0.0,47.0,0.0,17285807.83022485
CDP,"Salmon Creek, CA",0664252,CA,-123.05931387825737,38.34621498296485,0.0,1.0,35934.845636329876,464457.624821291
CDP,"Honalo, HI",1516000,HI,-155.90197414765598,19.578741702488806,0.0,29.0,0.0,10670306.159350932
CDP,"Kalaheo, HI",1524950,HI,-159.5236210952645,21.915914874566294,0.0,57.0,0.0,20913094.888938524
CDP,"Valley Ford, CA",0681778,CA,-122.91473224007856,38.32456010863796,0.0,2.0,61423.51521558711,793898.4982410438
CDP,"Bolinas, CA",0607316,CA,-122.70942346846263,37.917841401601,2.0,24.0,685686.9963862479,8862499.56199696
CDP,"Kalihiwai, HI",1526750,HI,-159.44066065926896,22.21616837015466,0.0,5.0,0.0,1912809.9434772013
CDP,"Dillon Beach, CA",0619262,CA,-122.95591778899714,38.243485017233986,0.0,4.0,119922.10113519387,1549992.306089657
CDP,"Honaunau-Napoopoo, HI",1516160,HI,-155.85857412009605,19.453870499916725,0.0,32.0,0.0,11644340.71582204
CDP,"Kapaa, HI",1528850,HI,-159.3522396664696,22.091031343707574,0.0,131.0,0.0,48278617.789975256
CDP,"Inverness, CA",0636616,CA,-122.84744682890145,38.0813185055492,2.0,19.0,553229.4839825669,7150487.154225456
CDP,"Honokaa, HI",1516450,HI,-155.46570503203853,20.074634861617483,0.0,27.0,0.0,10075307.674628759
CDP,"Point Reyes Station, CA",0657960,CA,-122.8092228691738,38.08464797519615,1.0,12.0,359766.3034055816,4649976.91826897
CDP,"Honomu, HI",1517450,HI,-155.1126350368667,19.86934146245686,0.0,6.0,0.0,2256586.8457611217
CDP,"Tomales, CA",0678890,CA,-122.90535562936411,38.2470301853217,0.0,3.0,86494.33775256143,1117938.701604735
CDP,"Silverado Resort, CA",0671927,CA,-122.25553981417463,38.35363734741326,1.0,16.0,455035.4290460841,5881329.691050998
CDP,"Kahaluu-Keauhou, HI",1521230,HI,-155.9574816309981,19.57258591717994,0.0,42.0,0.0,15641849.053918405
CDP,"Kilauea, HI",1536650,HI,-159.3966802690851,22.210419988004343,0.0,35.0,0.0,13063522.286788996
CDP,"Elmira, CA",0622146,CA,-121.90771857024752,38.352325215780155,0.0,3.0,79390.93803375206,1026127.3106516894
CDP,"Koloa, HI",1539200,HI,-159.46107500517851,21.90296010324515,0.0,28.0,0.0,10238381.333404467
CDP,"Diablo, CA",0619150,CA,-121.95645646764673,37.84080865161356,1.0,17.0,492641.6628515456,6367389.996096536
CDP,"Lawai, HI",1544450,HI,-159.5006704149714,21.92039413618734,0.0,29.0,0.0,10736417.102097841
CDP,"Kalaoa, HI",1525400,HI,-156.01189554932486,19.736583578148068,0.0,117.0,0.0,43399630.21525346
CDP,"Castle Hill, CA",0611915,CA,-122.05733361422031,37.87296341272608,2.0,20.0,569943.3656738831,7366513.956467917
town,"Tiburon, CA",0678666,CA,-122.4637112927885,37.88555299877711,11.0,133.0,3838760.7774530523,49615955.80503721
CDP,"Lihue, HI",1545200,HI,-159.35457367734722,21.973524156214708,0.0,80.0,0.0,29388517.749092113
CDP,"Kapaau, HI",1529000,HI,-155.80493052731697,20.226627101210127,0.0,21.0,0.0,7677684.151007568
CDP,"Camino Tassajara, CA",0610301,CA,-121.88497869548328,37.790965582346445,3.0,33.0,951019.8682358928,12291925.047596024
city,"Belvedere, CA",0605164,CA,-122.4663274515165,37.87373770241242,2.0,30.0,877060.9417518188,11336006.447673136
CDP,"Omao, HI",1557800,HI,-159.48125427741053,21.923440943120365,0.0,16.0,0.0,5822170.35791102
CDP,"Shell Ridge, CA",0671362,CA,-122.03439381655026,37.9059195408072,1.0,14.0,404475.9369298525,5227848.614267554
CDP,"Kealakekua, HI",1533950,HI,-155.90326304360403,19.528580806895388,0.0,24.0,0.0,9017532.590678234
city,"San Pablo, CA",0668294,CA,-122.34245554260143,37.96272543367914,35.0,429.0,12395432.509322392,160210877.21306506
CDP,"Kukuihaele, HI",1541000,HI,-155.56567476513882,20.119223430256948,0.0,4.0,0.0,1498514.7022632451
CDP,"Laupahoehoe, HI",1544150,HI,-155.23807836427702,19.974611616990067,0.0,7.0,0.0,2573919.37094628
CDP,"Norris Canyon, CA",0651622,CA,-121.98878542189262,37.746034554177996,1.0,15.0,421189.8186211688,5443875.416510015
CDP,"Naalehu, HI",1553600,HI,-155.57509681831795,19.069826747814997,0.0,10.0,0.0,3847656.8678700384
CDP,"Paauilo, HI",1559300,HI,-155.37013857151362,20.039162909554253,0.0,7.0,0.0,2662067.2946088235
CDP,"Pahala, HI",1559750,HI,-155.4792906016511,19.199432633355435,0.0,16.0,0.0,6007280.997602362
CDP,"Poipu, HI",1564550,HI,-159.46033653324398,21.883264187228885,0.0,12.0,0.0,4394173.99457781
CDP,"North Gate, CA",0651890,CA,-121.99818427716988,37.90615297290679,1.0,10.0,286225.2239637903,3699458.9884021427
CDP,"Pepeekeo, HI",1563650,HI,-155.106158718193,19.83155090633312,0.0,21.0,0.0,7840757.809783275
city,"Richmond, CA",0660620,CA,-122.33680375860789,37.94797103947634,123.0,1524.0,43990518.76450201,568577142.832101
CDP,"Alamo, CA",0600618,CA,-122.01299328449186,37.85459866557328,17.0,214.0,6182882.684660153,79913714.81954235
CDP,"Puako, HI",1565150,HI,-155.8596291647079,19.9386446073089,0.0,9.0,0.0,3446583.815205464
CDP,"Blackhawk, CA",0606928,CA,-121.90714247352187,37.81597993623828,11.0,138.0,3981246.6188715235,51457584.29415419
city,"Pinole, CA",0657288,CA,-122.28198027273513,37.99286209440316,22.0,269.0,7769865.751250627,100425459.69246401
CDP,"Waikoloa Village, HI",1576600,HI,-155.81851076458483,19.928507155204507,0.0,78.0,0.0,28868444.99948311
city,"Emeryville, CA",0622594,CA,-122.29097812655897,37.83807127607591,12.0,153.0,4426671.565945101,57214698.57391577
CDP,"Discovery Harbour, HI",1505900,HI,-155.6254119115547,19.04150437191335,0.0,11.0,0.0,4200248.562520213
CDP,"Princeville, HI",1565075,HI,-159.4805112620713,22.217477733880955,0.0,26.0,0.0,9731530.772344839
CDP,"Waiohinu, HI",1579550,HI,-155.61425239045477,19.071523827732744,0.0,3.0,0.0,947590.1793723461
city,"Berkeley, CA",0606000,CA,-122.27490797540558,37.872567876533864,133.0,1654.0,47733174.72222999,616950944.5242441
city,"South San Francisco, CA",0673262,CA,-122.42107894429202,37.65329781206366,75.0,928.0,26800291.444983277,346393576.72572994
CDP,"Puhi, HI",1565750,HI,-159.39179229907418,21.962078826251723,0.0,35.0,0.0,13023855.721140852
CDP,"Captain Cook, HI",1503850,HI,-155.893675283058,19.499530871902788,0.0,42.0,0.0,15364183.094381392
city,"Albany, CA",0600674,CA,-122.30024922399775,37.889838589948695,22.0,272.0,7857195.783087756,101554199.73418087
CDP,"Wailua, HI",1577000,HI,-159.34084752903317,22.055051119793543,0.0,28.0,0.0,10256010.918136975
city,"San Mateo, CA",0668252,CA,-122.31239034615743,37.55182268968811,114.0,1417.0,40910986.06287699,528774204.5189275
city,"Alameda, CA",0600562,CA,-122.26648984196594,37.765084903114,87.0,1081.0,31198967.25909542,403246430.4058896
CDP,"Wailua Homesteads, HI",1577225,HI,-159.3771406657582,22.065009407026615,0.0,62.0,0.0,22834719.62478198
city,"Lincoln City, OR",4142600,OR,-124.00699626444302,44.97280353643391,16.0,136.0,5893613.658568625,51324225.73065128
CDP,"Haena, HI",1508950,HI,-159.56113375885596,22.218381036103253,0.0,5.0,0.0,1917217.3396603283
city,"San Bruno, CA",0665028,CA,-122.43138644088343,37.62541415205451,49.0,603.0,17413775.48714009,225072924.58636397
CDP,"Neskowin, OR",4152000,OR,-123.97619813000072,45.120851499440406,0.0,2.0,99009.18913722802,862216.3356941168
CDP,"Wainiha, HI",1579250,HI,-159.54560398462337,22.19833616599396,0.0,4.0,0.0,1414774.1747838287
city,"San Francisco, CA",0667000,CA,-122.44098787629765,37.75591366110527,962.0,11933.0,344445523.7532366,4451955949.993419
CDP,"Lincoln Beach, OR",4142550,OR,-124.03175650031075,44.87100385862537,4.0,35.0,1521074.5057082293,13246197.631330358
CDP,"Makena, HI",1548350,HI,-156.42475139279716,20.631187003291327,0.0,1.0,0.0,445147.01449584635
CDP,"Rose Lodge, OR",4163800,OR,-123.88815883357294,45.018576183703786,4.0,34.0,1469003.0062360575,12792735.706631972
city,"Pacifica, CA",0654806,CA,-122.47794746715817,37.61107999959498,44.0,541.0,15615361.817154462,201828440.66507515
CDP,"East Richmond Heights, CA",0621061,CA,-122.31390713008408,37.945081360927716,4.0,48.0,1388505.7215060948,17946426.596292436
city,"Millbrae, CA",0647486,CA,-122.40231750878661,37.5993402814493,26.0,319.0,9215616.51754948,119111778.08643688
CDP,"Grand Ronde, OR",4130300,OR,-123.62103457552321,45.07384731379179,4.0,29.0,1254849.7971392383,10927793.706463955
town,"Hillsborough, CA",0633798,CA,-122.35869772417932,37.5572407281739,13.0,158.0,4564978.936940743,59002320.36247214
CDP,"Kensington, CA",0638086,CA,-122.28059117403627,37.908367167432274,6.0,74.0,2150240.879587832,27791848.108492594
city,"Half Moon Bay, CA",0631708,CA,-122.4379741591222,37.46855916320867,13.0,166.0,4798973.28061917,62026695.59386658
city,"Woodburn, OR",4183750,OR,-122.85856777982747,45.14768327384499,50.0,414.0,17909662.212823026,155965354.945558
CDP,"Rollingwood, CA",0662700,CA,-122.33057968806848,37.96544402031981,4.0,45.0,1308696.93643006,16914898.61558469
city,"Monmouth, OR",4149550,OR,-123.22841046192447,44.850506539472505,20.0,167.0,7208602.370591218,62775736.02620352
CDP,"Tara Hills, CA",0677924,CA,-122.31878534056058,37.99372295188716,6.0,73.0,2095085.0700064881,27078959.66109247
CDP,"Mililani Mauka, HI",1551000,HI,-157.99474600095238,21.475631121786403,0.0,254.0,0.0,93939242.24717297
city,"Daly City, CA",0617918,CA,-122.46829802296361,37.68615523032451,119.0,1481.0,42748259.50779493,552520950.7554302
city,"Independence, OR",4136150,OR,-123.19451731805016,44.85462255305069,17.0,145.0,6258114.154873828,54498459.20354
CDP,"Montalvin Manor, CA",0648718,CA,-122.32965204164053,37.99766413213134,3.0,40.0,1167882.4831807208,15094872.806691956
city,"Falls City, OR",4124550,OR,-123.43750160691341,44.86480425952437,2.0,16.0,699664.9365697447,6092995.438905092
CDP,"North Richmond, CA",0652162,CA,-122.37046206765886,37.964060639226396,4.0,54.0,1551466.0679964279,20052687.918156434
city,"Dallas, OR",4117700,OR,-123.31357247998655,44.92204588110153,31.0,254.0,10961417.339592667,95456928.54284644
city,"Sausalito, CA",0670364,CA,-122.49337421717092,37.85783561998743,8.0,104.0,3005573.7751409393,38847019.71325053
town,"Colma, CA",0614736,CA,-122.45260218406197,37.676586276970305,2.0,26.0,750453.2879400983,9699603.420686495
city,"Burlingame, CA",0609066,CA,-122.36731946312071,37.58594127227892,34.0,422.0,12194448.081984313,157613154.9160995
city,"San Rafael, CA",0668364,CA,-122.5222095563855,37.99057473631082,68.0,847.0,24441544.891296275,315906794.25926274
city,"Salem, OR",4164900,OR,-123.02486710035652,44.92327315221686,321.0,2665.0,115152820.77640332,1002802305.9259605
CDP,"Haleiwa, HI",1510750,HI,-158.10696602809438,21.586987166332918,0.0,47.0,0.0,17541436.808846224
town,"San Anselmo, CA",0664434,CA,-122.56991051130285,37.98212228016671,15.0,180.0,5199688.594168476,67205938.17762959
city,"Sheridan, OR",4167050,OR,-123.39721738042718,45.09554391166491,13.0,105.0,4520686.23586573,39368159.209026195
town,"Ross, CA",0662980,CA,-122.56156862290788,37.96381488900024,3.0,35.0,1024143.1006354014,13237042.307406792
city,"Brisbane, CA",0608310,CA,-122.40215439324413,37.68971852389473,5.0,62.0,1801756.4463238886,23287689.281737287
city,"Amity, OR",4102000,OR,-123.20344094127786,45.11535617062355,3.0,26.0,1143372.7841847297,9957001.980349097
city,"Belmont, CA",0605108,CA,-122.29563496532421,37.51537705635647,31.0,382.0,11021133.587253915,142448073.39867872
city,"Willamina, OR",4182350,OR,-123.48437048185026,45.078732603528714,5.0,38.0,1625217.5046525728,14153121.480727132
city,"Mill Valley, CA",0647710,CA,-122.5424690226959,37.90878017615441,17.0,206.0,5932592.3063326925,76678713.45596148
city,"Turner, OR",4175150,OR,-122.95177680915909,44.848920656152,4.0,32.0,1377327.8311089943,11994387.247655936
city,"Newark, CA",0650916,CA,-122.03116735777654,37.520407665784454,50.0,621.0,17926055.960978933,231694146.0750954
city,"Larkspur, CA",0640438,CA,-122.5320025151949,37.93902887715119,14.0,175.0,5050935.047115762,65283299.63767168
CDP,"Hauula, HI",1512400,HI,-157.91208214161318,21.61089679978701,0.0,49.0,0.0,18237805.40578032
town,"Fairfax, CA",0623168,CA,-122.59509659660789,37.98837879148355,9.0,108.0,3115885.3943036264,40272796.60805078
city,"Sublimity, OR",4170700,OR,-122.79252197311766,44.82925337033317,5.0,44.0,1917844.6636581577,16701449.761778634
city,"Fremont, CA",0626000,CA,-121.98412151080555,37.52786853885526,255.0,3168.0,91442482.42727561,1181893436.4086158
CDP,"Broadmoor, CA",0608338,CA,-122.48119494078631,37.69142779716444,5.0,61.0,1773342.847448651,22920443.7179251
CDP,"Kaaawa, HI",1519550,HI,-157.85321869542878,21.548317894252452,0.0,17.0,0.0,6183576.84492745
city,"Silverton, OR",4167650,OR,-122.78063610126972,45.003011309894376,19.0,155.0,6698888.396884748,58336918.59429677
town,"Corte Madera, CA",0616462,CA,-122.51314271825902,37.92371985543278,11.0,135.0,3887231.03435787,50242433.53154034
CDP,"El Granada, CA",0621936,CA,-122.46513495925092,37.51425770388338,6.0,80.0,2311111.9908667505,29871106.08007628
CDP,"Kahuku, HI",1522250,HI,-157.94774780814998,21.67907744125219,0.0,31.0,0.0,11591451.961624516
CDP,"Kentfield, CA",0638114,CA,-122.54965850210641,37.948117153763036,8.0,96.0,2771997.2785047954,35828045.15191214
city,"Mount Angel, OR",4150150,OR,-122.7963532062474,45.07029362310762,7.0,58.0,2489897.7564510307,21683144.145789087
CDP,"Highlands-Baywood Park, CA",0633633,CA,-122.34477544214548,37.52267116581646,5.0,59.0,1692698.3682880504,21878114.39710523
CDP,"Kawela Bay, HI",1532700,HI,-158.00063393911614,21.69956945229039,0.0,4.0,0.0,1498514.7022632451
CDP,"Montara, CA",0648760,CA,-122.49236148614294,37.5482598300213,3.0,42.0,1219695.5164238012,15764555.893643586
CDP,"Lagunitas-Forest Knolls, CA",0639283,CA,-122.69130094158032,38.018025431432235,2.0,27.0,765077.93442,9888626.872648647
CDP,"Laie, HI",1543250,HI,-157.92835351396081,21.644167981473352,0.0,75.0,0.0,27744558.972785674
CDP,"Moss Beach, CA",0649446,CA,-122.50347293398612,37.51855942370361,4.0,45.0,1299504.3014998361,16796083.874351334
city,"Keizer, OR",4138500,OR,-123.02390923745192,45.002904870591564,76.0,629.0,27190856.942686886,236790152.93229172
CDP,"Pescadero, CA",0656756,CA,-122.37251873453958,37.2507515171175,1.0,9.0,270764.88339932275,3499634.196327867
city,"Gervais, OR",4128650,OR,-122.89617380553548,45.107778983238596,5.0,43.0,1869440.1711910684,16279921.775439288
CDP,"Lucas Valley-Marinwood, CA",0644399,CA,-122.57653144436401,38.04049988227247,7.0,90.0,2586055.3446889017,33424746.976964764
CDP,"Makaha, HI",1547450,HI,-158.21043401913056,21.47349688564074,0.0,99.0,0.0,36607832.69705445
CDP,"Loma Mar, CA",0642384,CA,-122.3006846977452,37.265797748982436,0.0,2.0,47634.56282025122,615676.3863910136
city,"Aumsville, OR",4103250,OR,-122.86881263768316,44.84545498847366,7.0,60.0,2579372.7273750445,22462332.241749696
CDP,"Makaha Valley, HI",1547560,HI,-158.18530451360172,21.48423588989659,0.0,16.0,0.0,5927947.866306073
CDP,"Muir Beach, CA",0649950,CA,-122.5861895711327,37.865467663238626,0.0,5.0,131621.81831911523,1701211.0676593797
CDP,"Mililani Town, HI",1551050,HI,-158.01464079068143,21.446501825021528,0.0,327.0,0.0,120855210.73753074
CDP,"Eola, OR",4123550,OR,-123.12122916401349,44.93135111992734,0.0,1.0,33736.46444675918,293792.2329031805
town,"Woodside, CA",0686440,CA,-122.25908234619287,37.42216165448938,6.0,78.0,2245927.852270617,29028601.551330682
CDP,"San Geronimo, CA",0667070,CA,-122.6632587979946,38.006710012719466,1.0,7.0,188449.01606959038,2435702.195283747
CDP,"Rickreall, OR",4161800,OR,-123.23435992951154,44.931893932904785,0.0,1.0,57938.71068030381,504556.22607285355
CDP,"Mokuleia, HI",1552550,HI,-158.14775957840467,21.577309647614427,0.0,22.0,0.0,7999424.072375854
city,"San Carlos, CA",0665070,CA,-122.26791663351632,37.498273876256604,34.0,417.0,12047783.770143015,155717519.7264219
CDP,"Santa Venetia, CA",0670154,CA,-122.50338573686568,38.005481462112364,5.0,64.0,1838526.9860447843,23762948.2466707
CDP,"Punaluu, HI",1566500,HI,-157.89060292968108,21.581160404728983,0.0,14.0,0.0,5037653.837314379
CDP,"Fort Hill, OR",4126400,OR,-123.56048304099393,45.06712447279357,0.0,2.0,99742.59053824453,868603.1233659252
CDP,"Brooks, OR",4108750,OR,-122.95747882118522,45.050805577566926,1.0,7.0,297027.5674116841,2586649.0070823506
city,"Redwood City, CA",0660102,CA,-122.22476761616142,37.50091452830406,91.0,1126.0,32500560.795806676,420069517.6305213
CDP,"Pupukea, HI",1566800,HI,-158.04416432398085,21.650504681119536,0.0,54.0,0.0,20115356.1797925
CDP,"Stinson Beach, CA",0674172,CA,-122.64510140961342,37.90509635565484,1.0,9.0,266586.41297649377,3445627.4957672516
CDP,"Four Corners, OR",4126750,OR,-122.97219114391199,44.92968819564194,33.0,273.0,11778426.500325054,102571810.00924085
city,"Menlo Park, CA",0646870,CA,-122.16764611907853,37.46822957028957,38.0,470.0,13553704.510530606,175181534.6084676
CDP,"Schofield Barracks, HI",1569050,HI,-158.0617844361436,21.493605958792326,0.0,196.0,0.0,72523704.19335793
CDP,"Hayesville, OR",4132850,OR,-122.97391727816388,44.97935437327361,41.0,340.0,14714965.709995134,128144507.84716116
CDP,"Wahiawa, HI",1572650,HI,-158.01999413618643,21.500388355414188,0.0,212.0,0.0,78381133.72073399
city,"Foster City, CA",0625338,CA,-122.26677481565346,37.55543294525199,36.0,451.0,13018024.60232392,168257875.59659672
CDP,"Waialua, HI",1574000,HI,-158.1198225635263,21.565712480678847,0.0,46.0,0.0,16853883.004278384
CDP,"Tamalpais-Homestead Valley, CA",0677805,CA,-122.53851434297967,37.87922474660974,13.0,157.0,4538236.726234636,58656677.47888419
CDP,"Waianae, HI",1574450,HI,-158.17586972579534,21.456817011544537,0.0,165.0,0.0,61077696.30577662
city,"East Palo Alto, CA",0620956,CA,-122.135493762294,37.46695302830149,33.0,412.0,11883152.03548355,153589655.72433364
CDP,"Woodacre, CA",0686216,CA,-122.63830985445769,38.005173814299425,2.0,20.0,568271.9775047515,7344911.27624367
CDP,"Labish Village, OR",4140050,OR,-122.9735858704728,45.01909957016035,1.0,7.0,309495.39122896467,2695224.397503091
CDP,"Waikane, HI",1575800,HI,-157.8721961636784,21.49209072528349,0.0,9.0,0.0,3446583.815205464
town,"Atherton, CA",0603092,CA,-122.20315047842195,37.45391832446596,8.0,100.0,2888158.7562594432,37329431.427497245
CDP,"Alto, CA",0601416,CA,-122.51871823328571,37.905581080129096,1.0,11.0,304610.4938242381,3937088.47086885
CDP,"Waipio Acres, HI",1580000,HI,-158.01731391242757,21.468858197297074,0.0,61.0,0.0,22711312.531654418
CDP,"Sleepy Hollow, CA",0672184,CA,-122.58760789581645,38.01203589562733,3.0,35.0,999072.278098427,12913002.104043102
city,"Union City, CA",0681204,CA,-122.01896610604715,37.602839081156425,82.0,1021.0,29471169.73925561,380914659.72407526
city,"Waldport, OR",4178000,OR,-124.06620985457181,44.415384524985704,4.0,35.0,1515207.294500097,13195103.32995589
CDP,"Wheeler AFB, HI",1580600,HI,-158.03520843156087,21.475550575095934,0.0,20.0,0.0,7505795.699865608
CDP,"Whitmore Village, HI",1580900,HI,-158.02731944778154,21.511914312004443,0.0,52.0,0.0,19344061.847745243
CDP,"Marin City, CA",0645820,CA,-122.5137359533877,37.87115619867126,3.0,39.0,1124844.2378255816,14538603.790917618
city,"San Leandro, CA",0668084,CA,-122.15906165461409,37.707429926215404,100.0,1240.0,35804477.3591376,462772615.7637997
city,"Toledo, OR",4174000,OR,-123.93391143297234,44.61958200344203,7.0,59.0,2552236.8755374337,22226021.09789279
city,"Molalla, OR",4149450,OR,-122.58324042913038,45.15020491587886,17.0,139.0,5993356.24910687,52192828.8540172
CDP,"West Loch Estate, HI",1580470,HI,-158.0248895445695,21.36130055330014,0.0,66.0,0.0,24461048.816355918
CDP,"Nicasio, CA",0651280,CA,-122.70082176507462,38.06062171293236,0.0,1.0,40949.010143724736,529265.6654940292
city,"Siletz, OR",4167500,OR,-123.9187000025654,44.72183440809619,3.0,21.0,914551.5470675805,7964324.226744916
city,"Hayward, CA",0633000,CA,-122.07705104374654,37.632959157644926,171.0,2125.0,61328663.93698889,792672546.1383178
CDP,"Kapolei, HI",1530300,HI,-158.0664691629213,21.340310804807583,0.0,185.0,0.0,68191233.74534391
city,"Scotts Mills, OR",4165800,OR,-122.66895707804012,45.04099837300744,1.0,6.0,270625.11697508994,2356724.650897253
CDP,"Stanford, CA",0673906,CA,-122.16736496325554,37.425150894670864,16.0,204.0,5876182.9556245,75949622.9983932
city,"Pleasant Hill, CA",0657764,CA,-122.0758814031644,37.954019086323996,39.0,485.0,14013336.257041803,181122271.6701353
CDP,"Ko Olina, HI",1539400,HI,-158.11862232710828,21.337804498325312,0.0,22.0,0.0,7955350.110544582
CDP,"Emerald Lake Hills, CA",0622587,CA,-122.26755995473079,37.46612197718589,5.0,63.0,1811366.9282963956,23411904.6930267
CDP,"Waikele, HI",1576250,HI,-158.00580537709547,21.402552477710543,0.0,93.0,0.0,34188172.19251763
city,"Newport, OR",4152450,OR,-124.05395055497583,44.62251709748681,21.0,174.0,7521031.367424248,65496507.57439383
city,"Westfir, OR",4179950,OR,-122.50895805281671,43.75788998521119,1.0,4.0,187750.75866022502,1635017.6439829178
city,"Orinda, CA",0654232,CA,-122.17933286488133,37.88087512610041,21.0,259.0,7484476.221371403,96736802.044174
CDP,"Kalaeloa, HI",1524850,HI,-158.08120569226386,21.3214367661644,0.0,1.0,0.0,198332.82824072364
CDP,"North Fair Oaks, CA",0651840,CA,-122.2034393239526,37.47537407030678,17.0,213.0,6140262.286347296,79362846.47382408
city,"Oakridge, OR",4154100,OR,-122.46398409579078,43.74513973938604,7.0,56.0,2409223.602339215,20980597.501890175
town,"Moraga, CA",0649187,CA,-122.1230877020403,37.84382634022101,19.0,236.0,6825531.435691261,88219945.36576496
CDP,"Aiea, HI",1500550,HI,-157.9222037103224,21.38710820846954,0.0,110.0,0.0,40728748.128278375
CDP,"West Menlo Park, CA",0684536,CA,-122.2035493634774,37.43381986572801,4.0,53.0,1525141.704332605,19712445.704624556
CDP,"Ewa Beach, HI",1507450,HI,-158.00742554105034,21.31785162725235,0.0,178.0,0.0,65837684.183553986
city,"Port Orford, OR",4159250,OR,-124.49739542449878,42.74972013692166,2.0,20.0,860279.8433923591,7491701.939031104
city,"Martinez, CA",0646114,CA,-122.11510463879054,37.999554191474026,42.0,523.0,15106841.966696166,195255825.2068483
CDP,"Ashland, CA",0602980,CA,-122.11592052794916,37.69416186853259,26.0,322.0,9293336.067414101,120116302.71686433
city,"Depoe Bay, OR",4118850,OR,-124.05959169395433,44.8091077850002,3.0,24.0,1039229.785240386,9050078.130952321
CDP,"Ewa Gentry, HI",1507470,HI,-158.0259731669983,21.334293567296868,0.0,278.0,0.0,102639442.31266606
city,"Gold Beach, OR",4129900,OR,-124.41678267820936,42.397496319118446,5.0,40.0,1711025.4685715039,14900375.638328701
city,"Lafayette, CA",0639122,CA,-122.11899957735923,37.89169855943955,28.0,349.0,10080977.742117377,130296565.77254029
city,"Reedsport, OR",4161300,OR,-124.11209613199655,43.69834422523863,9.0,71.0,3052416.631030689,26581810.29006603
CDP,"Castro Valley, CA",0611964,CA,-122.06308413534474,37.70931452154767,72.0,899.0,25939526.53788049,335268196.4102433
CDP,"Ewa Villages, HI",1507485,HI,-158.0389208179899,21.341764462707033,0.0,71.0,0.0,26140266.762127377
city,"Powers, OR",4159600,OR,-124.0733972584506,42.88594267090204,1.0,12.0,509713.9737064702,4438817.4319067495
city,"Hercules, CA",0633308,CA,-122.25616595383508,38.00665777845813,28.0,351.0,10128194.457895346,130906841.48887524
city,"Elkton, OR",4122800,OR,-123.5687652299782,43.6377892305623,0.0,3.0,144480.07600025128,1258197.1713462297
city,"North Bend, OR",4153000,OR,-124.23693903845626,43.40459988662196,20.0,167.0,7196134.546773937,62667160.63578277
CDP,"Cherryland, CA",0612902,CA,-122.1037671346897,37.679158901201085,17.0,215.0,6217563.989169634,80361970.43419546
city,"Concord, CA",0616000,CA,-122.00158803599463,37.97218103148282,144.0,1791.0,51692693.29490281,668127693.9754831
CDP,"Halawa, HI",1510000,HI,-157.91854422930402,21.37532482049634,0.0,168.0,0.0,62113434.40881152
CDP,"Summit, OR",4170870,OR,-123.57661160221953,44.63600442110041,0.0,1.0,64539.32328945235,562037.315119128
city,"Myrtle Point, OR",4151050,OR,-124.13276205305529,43.06172787237737,5.0,43.0,1877507.58660225,16350176.439829178
CDP,"Fairview, CA",0623350,CA,-122.04804461332743,37.67593586281608,12.0,145.0,4199780.621985483,54282134.73347436
CDP,"Alsea, OR",4101800,OR,-123.5957435358209,44.38180482721451,0.0,3.0,120277.82976670664,1047433.1781765568
city,"Clayton, CA",0613882,CA,-121.93010506491332,37.94029801455497,13.0,158.0,4570410.94849042,59072529.07320093
CDP,"Hickam Housing, HI",1514200,HI,-157.94673006125754,21.330519599361516,0.0,94.0,0.0,34725874.52685914
city,"Lakeside, OR",4140650,OR,-124.17325311427908,43.5795324604587,4.0,29.0,1256316.5999412714,10940567.281807572
CDP,"San Lorenzo, CA",0668112,CA,-122.13469138331254,37.67374718198893,28.0,344.0,9921778.01900759,128238910.48118083
CDP,"Winchester Bay, OR",4183050,OR,-124.1768257498552,43.67748083191552,1.0,7.0,283092.94079237053,2465300.0413179933
city,"Coquille, OR",4115350,OR,-124.18408141135627,43.18008046519872,8.0,66.0,2873466.6891826624,25023434.09814481
city,"Piedmont, CA",0656938,CA,-122.23009465947278,37.82255772490234,13.0,160.0,4608017.182295882,59558589.37824648
city,"Sunnyvale, CA",0677000,CA,-122.02562432699749,37.383441657494856,167.0,2077.0,59960214.87351237,774985351.7047164
CDP,"Gardiner, OR",4127850,OR,-124.10680832561641,43.73272198493005,1.0,4.0,184083.75165514252,1603083.7056238765
city,"Veneta, OR",4177050,OR,-123.35133497122979,44.04714986501943,10.0,80.0,3439652.5707674036,29954034.180780802
city,"Coos Bay, OR",4115250,OR,-124.24126544999565,43.372781850422555,33.0,273.0,11807762.556365713,102827281.5161132
city,"Saratoga, CA",0670280,CA,-122.02510218991831,37.26854684068875,36.0,442.0,12772330.541461572,165082281.60363257
CDP,"Urban Honolulu, HI",1571550,HI,-157.8433669346197,21.33046236544821,0.0,4054.0,0.0,1498034296.0792842
CDP,"Iroquois Point, HI",1519100,HI,-157.9777306302425,21.323163766622784,0.0,40.0,0.0,14760369.817292964
city,"Bandon, OR",4103800,OR,-124.41559339607913,43.114264504757095,6.0,53.0,2269143.934745063,19760721.056574795
city,"Oakland, CA",0653000,CA,-122.21485925634401,37.79087803509901,461.0,5725.0,165253908.905424,2135905599.8017151
CDP,"Langlois, OR",4140950,OR,-124.45317654783256,42.92590122965708,0.0,3.0,134945.85778703672,1175168.931612722
CDP,"Maili, HI",1547300,HI,-158.1699946862088,21.41343701477472,0.0,115.0,0.0,42593076.713741176
city,"Springfield, OR",4169600,OR,-122.98108143236169,44.053844216599636,123.0,1021.0,44112627.46834068,384152504.883924
city,"Santa Clara, CA",0669084,CA,-121.96793211809063,37.364619747342616,138.0,1716.0,49533259.78038475,640217031.1257571
CDP,"Nesika Beach, OR",4151950,OR,-124.40619939418453,42.504576772798025,1.0,8.0,352032.67248792184,3065658.082467971
CDP,"Makakilo, HI",1547600,HI,-158.08122945525503,21.359008043234923,0.0,222.0,0.0,82017235.57181391
city,"Benicia, CA",0605290,CA,-122.15417261844586,38.07039082583192,32.0,394.0,11377139.26727895,147049444.2864431
city,"Lowell, OR",4144050,OR,-122.78195556707908,43.92078074517401,2.0,18.0,778138.8864785107,6776381.719788577
CDP,"Barview, OR",4104400,OR,-124.30565462284186,43.34705217565121,4.0,32.0,1380261.4367130606,12019934.39834317
CDP,"Nanakuli, HI",1553900,HI,-158.1449137661052,21.389230907447573,0.0,149.0,0.0,55154155.83565368
CDP,"Clyde, CA",0614232,CA,-122.02796635430289,38.02510571451583,1.0,10.0,291239.3884711851,3764267.029074881
city,"Palo Alto, CA",0655282,CA,-122.14727752457163,37.39059860504294,77.0,958.0,27640999.69405648,357259724.8785258
CDP,"Bunker Hill, OR",4109600,OR,-124.20830726140757,43.35020908132108,3.0,24.0,1036296.1796363201,9024530.980265088
CDP,"Pearl City, HI",1562600,HI,-157.9549294837085,21.405474968277435,0.0,565.0,0.0,208707838.85580504
CDP,"Crockett, CA",0617274,CA,-122.22015166070054,38.05193926495989,4.0,45.0,1288222.4313581975,16650265.782837674
city,"Monte Sereno, CA",0648956,CA,-121.98814151580405,37.24037639796929,4.0,49.0,1428619.037565254,18464890.921674345
CDP,"Royal Kunia, HI",1568815,HI,-158.03179593083433,21.40523965664267,0.0,173.0,0.0,64013022.163739346
CDP,"Waimalu, HI",1577750,HI,-157.93377999973805,21.39177593853273,0.0,166.0,0.0,61320103.09584862
CDP,"Pacheco, CA",0654764,CA,-122.06990570218771,37.98786039100989,4.0,54.0,1548958.9857427308,20020283.897820063
town,"Los Gatos, CA",0644112,CA,-121.95682352966644,37.230814821820566,35.0,432.0,12478584.070736688,161285610.5542213
CDP,"Glasgow, OR",4129100,OR,-124.19608731018884,43.43714559571069,2.0,13.0,554451.459168477,4828411.479887054
CDP,"Waipahu, HI",1579700,HI,-158.00990340189333,21.38654627258601,0.0,462.0,0.0,170539787.90992355
CDP,"Port Costa, CA",0658226,CA,-122.18494380524702,38.044542371576995,0.0,3.0,80226.63211831785,1036928.6507638124
town,"Los Altos Hills, CA",0643294,CA,-122.13932209180267,37.36742313615975,9.0,117.0,3370772.0900961985,43567205.3422483
CDP,"Waipio, HI",1579860,HI,-157.99655456765655,21.41432385142112,0.0,141.0,0.0,52051348.92273214
CDP,"Rodeo, CA",0662490,CA,-122.25212907168981,38.036288265158724,10.0,126.0,3641536.9734955216,47066839.53857617
city,"Eugene, OR",4123850,OR,-123.11732758778525,44.055936335039355,325.0,2695.0,116461208.87581675,1014196335.1324663
CDP,"Ocean Pointe, HI",1556685,HI,-158.02890576598037,21.31433168542569,0.0,110.0,0.0,40684674.1664471
CDP,"Vine Hill, CA",0682842,CA,-122.08728762253355,38.00710517275271,4.0,55.0,1600772.0189858112,20689966.984771695
city,"Los Altos, CA",0643280,CA,-122.0966571054281,37.36852713655978,34.0,428.0,12342783.781994747,159530392.78600132
city,"Creswell, OR",4116950,OR,-123.01594536209716,43.92119773299214,10.0,85.0,3694142.8569201306,32170249.50289827
city,"Florence, OR",4126050,OR,-124.10643894880228,43.99156319992106,18.0,149.0,6449531.920539136,56165410.78588196
CDP,"Contra Costa Centre, CA",0683215,CA,-122.05401928775856,37.926013233701426,7.0,84.0,2428944.8567905296,31394095.035885632
CDP,"Haiku-Pauwela, HI",1509260,HI,-156.30216148586518,20.915059851260235,0.0,98.0,0.0,36219981.83293926
city,"Cupertino, CA",0617610,CA,-122.04631665286848,37.31679650020004,70.0,865.0,24961346.61189621,322625227.8090033
city,"Cottage Grove, OR",4115950,OR,-123.05811778522262,43.79589558185552,20.0,166.0,7178532.913149541,62513877.73165938
city,"Dunes City, OR",4121150,OR,-124.09843885650483,43.90796874206615,3.0,22.0,968823.2507428016,8436946.514458729
CDP,"Acalanes Ridge, CA",0600135,CA,-122.07857401359674,37.90472223769881,1.0,17.0,483031.18087903876,6243174.58480712
CDP,"Haliimaile, HI",1510900,HI,-156.3381346366173,20.867070445591278,0.0,12.0,0.0,4297211.278549012
city,"Campbell, CA",0610345,CA,-121.95418377028366,37.28032866271453,47.0,579.0,16702599.821174582,215880984.1509472
city,"Coburg, OR",4114400,OR,-123.05885915458036,44.138196031713875,2.0,18.0,778138.8864785107,6776381.719788577
CDP,"Kaanapali, HI",1520000,HI,-156.67928693435005,20.927543385736602,0.0,13.0,0.0,4693876.9350304585
city,"Yachats, OR",4184200,OR,-124.10212413356938,44.3128039905565,1.0,12.0,512647.57931053627,4464364.582593983
CDP,"Saranap, CA",0670266,CA,-122.0761265131696,37.88781590725573,6.0,76.0,2179908.019589918,28175295.682472967
town,"Portola Valley, CA",0658380,CA,-122.22029056164429,37.371375547159694,5.0,66.0,1894100.6426684107,24481237.36412688
city,"Yoncalla, OR",4184600,OR,-123.2875563610782,43.600372015393795,2.0,18.0,773738.4780724117,6738060.9937577285
CDP,"Kahului, HI",1522700,HI,-156.4600399831211,20.871072010841573,0.0,319.0,0.0,117756811.22079231
CDP,"Reliez Valley, CA",0660279,CA,-122.10269597691602,37.93991992195432,4.0,46.0,1315382.4891065864,17001309.336481676
city,"Drain, OR",4120500,OR,-123.3142800173075,43.66200705724778,2.0,20.0,849278.8223771115,7395900.123953979
CDP,"Kapalua, HI",1529725,HI,-156.64142077076414,20.995803271537003,0.0,4.0,0.0,1582255.2297426618
CDP,"Montgomery Creek, CA",0648998,CA,-121.9215012710242,40.841446506903075,0.0,2.0,68526.9149343965,885709.8891940896
CDP,"Alhambra Valley, CA",0600898,CA,-122.13632628549993,37.96865801982303,1.0,14.0,396118.99608419446,5119835.213146324
town,"Waterloo, OR",4179050,OR,-122.82427716702753,44.49468168112896,0.0,4.0,162815.11102566385,1417866.8631414366
CDP,"Palo Cedro, CA",0655296,CA,-122.2363297311648,40.55118332103872,1.0,19.0,534844.214122119,6912857.671758749
city,"Sweet Home, OR",4171950,OR,-122.7027419095139,44.402301698890035,18.0,152.0,6578610.56711804,57289485.41612021
CDP,"Kihei, HI",1536500,HI,-156.44511161626085,20.764848428110074,0.0,256.0,0.0,94498981.56243011
CDP,"Bay Point, CA",0604415,CA,-121.96132799889138,38.032846139140446,25.0,316.0,9121183.085993543,117891226.65376697
CDP,"Round Mountain, CA",0663134,CA,-121.93748668795273,40.80053504410694,0.0,2.0,65184.138596133256,842504.5287455976
city,"Sodaville, OR",4168550,OR,-122.86907763324005,44.48304237867476,1.0,5.0,222954.0259090172,1941583.4522297147
CDP,"Lahaina, HI",1542950,HI,-156.66121271333824,20.88510488314455,0.0,145.0,0.0,53514604.45553036
city,"Mill City, OR",4148150,OR,-122.4779025768332,44.75190096294196,4.0,33.0,1405930.4857486382,12243471.96685646
CDP,"Bella Vista, CA",0604926,CA,-122.24499319953055,40.6501807717192,3.0,40.0,1162868.3186733262,15030064.766019218
CDP,"Lanai City, HI",1543700,HI,-156.91518137894028,20.827922316385944,0.0,37.0,0.0,13848038.807385636
city,"Lyons, OR",4144300,OR,-122.60974332923777,44.77760472527932,2.0,20.0,880081.6812198048,7664145.2061699275
city,"Walnut Creek, CA",0683346,CA,-122.03988928894255,37.902418287826606,76.0,944.0,27246134.239099134,352156091.6755476
CDP,"Cambrian Park, CA",0610088,CA,-121.92890273754236,37.25627357370843,4.0,48.0,1379730.933618154,17833012.525115147
CDP,"Shasta, CA",0671218,CA,-122.47978469610777,40.59110714773773,2.0,26.0,762988.6992085855,9861623.52236834
city,"Idanha, OR",4135800,OR,-122.08758710283766,44.704882420475386,0.0,2.0,100475.99193926103,874989.9110377334
city,"San Ramon, CA",0668378,CA,-121.93815037141465,37.76237054620523,87.0,1076.0,31047706.629789013,401291387.8455954
CDP,"Fruitdale, CA",0627080,CA,-121.93564928467265,37.31190805885412,1.0,13.0,378987.26735059527,4898407.740847801
CDP,"Keswick, CA",0638352,CA,-122.46060573528432,40.61343994111694,1.0,6.0,185106.23973132714,2392496.8348352546
city,"Halsey, OR",4131750,OR,-123.10944569735483,44.38289070049833,2.0,16.0,700398.3379707612,6099382.2265769
CDP,"Maalaea, HI",1546400,HI,-156.49098568072935,20.805023746957957,0.0,4.0,0.0,1586662.6259257891
town,"Danville, CA",0617988,CA,-121.96996046222341,37.8121902398819,50.0,618.0,17852514.881537136,230743628.14522853
CDP,"Mountain Gate, CA",0649558,CA,-122.3262596744375,40.71844202872906,1.0,13.0,382747.89073114144,4947013.771352354
CDP,"Lexington Hills, CA",0641282,CA,-121.9877809201825,37.16171319561103,3.0,35.0,1016204.0068320262,13134429.576341623
city,"Gates, OR",4128200,OR,-122.42013260193853,44.75600541591384,1.0,8.0,350565.8696858889,3052884.5071243546
city,"Yreka, CA",0686944,CA,-122.63116784416731,41.729252754726,9.0,113.0,3269235.2588214525,42254842.51862535
CDP,"Loyola, CA",0644378,CA,-122.09821056786815,37.349852567764344,4.0,49.0,1404383.9091128453,18151652.058422778
city,"Brownsville, OR",4109050,OR,-122.98338738151932,44.39226260377977,3.0,29.0,1232114.3537077266,10729803.288637897
city,"Oglesby, TX",4853520,TX,-97.51121795588367,31.418618057125325,4.0,25.0,1436013.9497042974,9524619.967826944
city,"Montague, CA",0648690,CA,-122.53032078755307,41.7275433369009,2.0,21.0,607967.4465216276,7857974.931569516
CDP,"Ladera, CA",0639094,CA,-122.19930133358672,37.399580806803606,2.0,22.0,620920.7048323976,8025395.703307424
town,"Thornton, TX",4872788,TX,-96.57385656047028,31.41113280626065,4.0,28.0,1578452.5803429827,10469369.72172071
city,"Detroit, OR",4119100,OR,-122.15121468137166,44.73381762932638,0.0,3.0,150347.2872083833,1309291.472720696
city,"Fort Jones, CA",0625128,CA,-122.84106486603477,41.60845236302097,1.0,12.0,351827.2096022064,4547364.187203802
CDP,"La Honda, CA",0639318,CA,-122.26508770913155,37.31819001336911,1.0,14.0,391522.6786190825,5060427.842529647
city,"Etna, CA",0622972,CA,-122.89449869261065,41.45819060644517,1.0,11.0,308788.9642470671,3991095.1714294655
CDP,"Redland, TX",4861124,TX,-94.71821711634485,31.40329996333094,9.0,55.0,3159812.071515326,20958020.050663743
CDP,"South Lebanon, OR",4168875,OR,-122.89318842245508,44.50474480684208,2.0,17.0,723867.1828032893,6303759.432074765
CDP,"Ben Lomond, CA",0605332,CA,-122.08811864489326,37.07819618026928,7.0,91.0,2634943.4486360024,34056625.373523965
city,"Dorris, CA",0619584,CA,-121.92055036556089,41.96438625011621,1.0,14.0,394029.7608727799,5092831.862866015
CDP,"Shedd, OR",4166900,OR,-123.11191142899295,44.45795529257332,0.0,4.0,156947.89981753184,1366772.5617669704
CDP,"Boulder Creek, CA",0607652,CA,-122.12720739232395,37.13410137599647,6.0,70.0,2033661.554790901,26285061.16285143
city,"Wimberley, TX",4879624,TX,-98.09055179540525,29.984805526840518,22.0,140.0,8023073.889036154,53214475.933608025
CDP,"Greenview, CA",0631134,CA,-122.91856129254688,41.54701804619085,0.0,3.0,83569.40845658109,1080134.0112123045
CDP,"Crawfordsville, OR",4116650,OR,-122.86487925179719,44.356087248605164,1.0,6.0,253756.88475171037,2209828.534445662
CDP,"Brookdale, CA",0608478,CA,-122.11062730183731,37.10573199904111,2.0,29.0,829844.2259738502,10725730.731338184
CDP,"Hornbrook, CA",0634694,CA,-122.55962161676324,41.90795391413559,0.0,4.0,104043.91352844347,1344766.8439593192
city,"Woodcreek, TX",4880058,TX,-98.11132891549448,30.02673194638091,12.0,75.0,4267345.097501839,28303931.402368326
CDP,"Cascadia, OR",4111700,OR,-122.50264390408013,44.39300368669769,0.0,3.0,110010.2101524756,958018.1507712409
CDP,"Macdoel, CA",0644812,CA,-122.00580020438433,41.82562849515545,0.0,2.0,55573.65662362643,718289.1174561826
CDP,"Lompico, CA",0642510,CA,-122.05228099669523,37.1100589043271,1.0,16.0,471749.3107374003,6097356.493293459
city,"Mountain City, TX",4849600,TX,-97.89150825420337,30.039190107829633,5.0,33.0,1892398.9499139625,12551675.30173146
CDP,"Makawao, HI",1548050,HI,-156.31881452343285,20.848392973712645,0.0,87.0,0.0,32010918.4780528
CDP,"Holley, OR",4134650,OR,-122.78558085036352,44.34898625285908,1.0,7.0,285293.14499542007,2484460.4043334182
CDP,"Mount Hebron, CA",0649768,CA,-122.00819524925214,41.78545648056584,0.0,1.0,39695.46901687603,513063.6553258447
CDP,"Zayante, CA",0687090,CA,-122.04135617331488,37.08887293703609,1.0,10.0,294164.3177671655,3802071.719467312
CDP,"Mehama, OR",4147300,OR,-122.6307840930612,44.791425515898645,1.0,5.0,217086.81470088515,1890489.1508552486
city,"Pacific Grove, CA",0654848,CA,-121.92567801232714,36.61915444490442,18.0,221.0,6392641.899886171,82624851.18768522
city,"Kyle, TX",4839952,TX,-97.86294819432001,30.0015116119034,245.0,1535.0,87910797.30153312,583084123.6174543
CDP,"Happy Camp, CA",0632030,CA,-123.3891636799584,41.81036901116647,1.0,17.0,501834.29778176954,6486204.737329889
city,"Hays, TX",4832906,TX,-97.87239439558832,30.121515035544657,2.0,11.0,651148.0257768474,4318856.017800072
city,"Philomath, OR",4157450,OR,-123.35979520374636,44.542313103510544,10.0,79.0,3407382.9091226775,29673015.52322124
CDP,"Coffee Creek, CA",0614406,CA,-122.7136008217498,41.080265015254604,0.0,3.0,92344.1963445221,1193548.0823895964
city,"Carmel-by-the-Sea, CA",0611250,CA,-121.92188941113986,36.55294535656418,4.0,55.0,1577372.5846179682,20387529.461632248
city,"Monroe, OR",4149600,OR,-123.29886343176487,44.316853252941094,1.0,10.0,453242.06582819944,3947034.781177513
city,"Ashland, OR",4103050,OR,-122.69947920022837,42.19060094284653,42.0,345.0,14899049.461650277,129747591.55278507
city,"Dripping Springs, TX",4821424,TX,-98.08758965942725,30.187318837962884,15.0,96.0,5499875.289150871,36478908.86463275
city,"Scotts Valley, CA",0670588,CA,-122.01179073002439,37.05544240838723,13.0,166.0,4798137.5865346035,62015894.25375447
city,"Talent, OR",4172500,OR,-122.78071348178315,42.240404045128045,12.0,103.0,4440745.483154931,38671999.35279909
city,"Corvallis, OR",4115800,OR,-123.27832435386294,44.56958999961199,113.0,939.0,40577632.71544113,353368188.3058081
city,"Santa Cruz, CA",0669112,CA,-122.03477524169058,36.97892079204923,70.0,870.0,25123053.417259693,324715287.1206991
city,"Phoenix, OR",4157500,OR,-122.81516785203995,42.2748226994282,10.0,80.0,3450653.5917826514,30049835.995857924
city,"Buda, TX",4811080,TX,-97.84437329487604,30.085561874871132,66.0,416.0,23807599.692465983,157908173.15081513
city,"Capitola, CA",0611040,CA,-121.95397333267367,36.97729969484288,12.0,143.0,4140028.494939028,53509838.91545756
city,"Jacksonville, OR",4137000,OR,-122.96916900786222,42.31263191516781,6.0,47.0,2049856.9158411282,17851071.54270412
CDP,"Del Monte Forest, CA",0618590,CA,-121.94372372160197,36.58544926387411,5.0,66.0,1915410.8418248387,24756671.53698602
CDP,"Napili-Honokowai, HI",1554100,HI,-156.66352119567279,20.97679465979665,0.0,87.0,0.0,32019733.270419043
village,"Bear Creek, TX",4806242,TX,-97.93998087825862,30.182556908531513,3.0,20.0,1148229.7775975654,7615839.85281709
CDP,"Ruch, OR",4164150,OR,-123.04032229264074,42.23136948103841,2.0,15.0,631458.6062752099,5499024.1854269225
CDP,"Aptos, CA",0602378,CA,-121.8927543495969,36.990792036157764,7.0,89.0,2573102.0863781325,33257326.20522686
city,"Albany, OR",4101000,OR,-123.09671233266785,44.62745583443426,104.0,866.0,37428407.09947626,325943322.04306334
CDP,"Driftwood, TX",4821412,TX,-98.0372926320689,30.133072102718764,1.0,8.0,450571.17855094344,2988494.119459871
CDP,"Williams, OR",4182450,OR,-123.29220735876672,42.21943329780372,2.0,18.0,770804.8724683456,6712513.843070494
CDP,"Felton, CA",0623826,CA,-122.08047315011589,37.03922155199798,5.0,59.0,1703144.544345123,22013131.148506768
city,"Adair Village, OR",4100275,OR,-123.21776101871463,44.674607718150845,2.0,14.0,591854.9306203186,5154137.651149276
city,"Crescent City, CA",0617022,CA,-124.18910449286456,41.77804926191555,9.0,111.0,3191097.861914549,41244917.21814185
CDP,"Barton Creek, TX",4805750,TX,-97.86779283163156,30.281660026437144,26.0,162.0,9290487.010637516,61620820.682540305
city,"Trinidad, CA",0680448,CA,-124.14303976652441,41.05918973170468,0.0,5.0,154603.40564467502,1998247.9207427632
CDP,"Pleasure Point, CA",0653924,CA,-121.97128651004834,36.961948850269955,7.0,84.0,2431034.0920019443,31421098.38616594
CDP,"Shady Hollow, TX",4867082,TX,-97.87561171322709,30.166752937625994,41.0,259.0,14819431.408081997,98292535.61939627
city,"Junction City, OR",4138000,OR,-123.2137689693768,44.21996920228429,11.0,92.0,3990437.022930798,34750511.722308815
CDP,"Rio Mar, CA",0660928,CA,-121.88092379707375,36.96082327253385,11.0,133.0,3843774.9419604475,49680763.84570994
CDP,"Bertsch-Oceanview, CA",0606150,CA,-124.15729494937429,41.752994891814765,3.0,34.0,979015.6200688476,12653769.941352148
city,"Tangent, OR",4172600,OR,-123.11093566173778,44.54769029770628,2.0,20.0,862480.0475954086,7510862.302046528
CDP,"Soquel, CA",0672688,CA,-121.94825081719927,36.997758571616814,11.0,140.0,4042252.287044828,52246082.122339174
city,"Progreso Lakes, TX",4859642,TX,-97.95880413452323,26.07125535695074,2.0,12.0,668589.490753013,4434539.661134002
CDP,"Paia, HI",1560200,HI,-156.3676463356604,20.905937810275034,0.0,33.0,0.0,12018969.391387852
CDP,"Klamath, CA",0638702,CA,-124.007424414209,41.532392118619384,1.0,11.0,328845.6222766466,4250327.334120419
CDP,"Twin Lakes, CA",0681050,CA,-121.9893555454474,36.96493159371107,6.0,71.0,2044107.7308479736,26420077.91425297
city,"Scio, OR",4165650,OR,-122.85082988597175,44.70451444563545,2.0,14.0,605789.5572396322,5275486.616913633
city,"Progreso, TX",4859636,TX,-97.95658801107547,26.096146620704868,48.0,302.0,17316467.810503032,114854577.22337066
CDP,"Smith River, CA",0672380,CA,-124.14931964195048,41.9249593484922,1.0,13.0,373973.10284320044,4833599.700175063
CDP,"Bonny Doon, CA",0607470,CA,-122.13685216066034,37.04348585072675,3.0,38.0,1103116.1916268705,14257768.94800242
city,"Millersburg, OR",4148300,OR,-123.06912263790122,44.67798275310229,3.0,24.0,1042896.7922454686,9082012.069311362
CDP,"Davenport, CA",0618086,CA,-122.18786319963434,37.01779101027392,0.0,6.0,169228.0521245767,2187271.3727049166
CDP,"Gasquet, CA",0629154,CA,-123.97309694740859,41.84289039750058,1.0,10.0,279539.67128726374,3613048.267505158
city,"Hidalgo, TX",4833560,TX,-98.24916225994338,26.106197770890553,93.0,583.0,33374243.231892787,221360651.519476
CDP,"Mount Hermon, CA",0649796,CA,-122.05123734526751,37.05036964354095,1.0,15.0,432889.5358050901,5595094.178079737
CDP,"Hiouchi, CA",0633935,CA,-124.06611318719948,41.793664268788994,0.0,4.0,127025.50085400327,1641803.697042703
CDP,"Paradise Park, CA",0655604,CA,-122.04240477687487,37.00628656085495,0.0,6.0,162124.65240576732,2095459.9817518708
CDP,"Orick, CA",0654218,CA,-124.06913915230868,41.29091702684564,0.0,5.0,150424.93522184598,1944241.220182148
city,"Donna, TX",4820884,TX,-98.05593254483486,26.14673945350424,131.0,820.0,46955330.62666704,311439648.4621632
city,"Lebanon, OR",4141650,OR,-122.90749913004862,44.531396817478814,32.0,269.0,11614144.586497357,101141169.57075582
CDP,"Pasatiempo, CA",0656028,CA,-122.02651568358577,37.00343360500056,1.0,15.0,434143.0769319388,5611296.188247922
CDP,"Big Lagoon, CA",0606567,CA,-124.12979180343373,41.15936737339756,0.0,1.0,39277.621974593116,507662.9852697832
CDP,"Scissors, TX",4866248,TX,-98.0474887391288,26.13333299521656,28.0,175.0,10031749.272124553,66537375.524232365
CDP,"Seacliff, CA",0670644,CA,-121.91766230282106,36.97687972956203,4.0,47.0,1363434.8989691206,17622386.39292875
city,"Harrisburg, OR",4132550,OR,-123.16567485536149,44.27182908119992,8.0,63.0,2702584.162745817,23535312.570613485
city,"Brookings, OR",4108650,OR,-124.30035153332467,42.06941916404203,13.0,110.0,4758308.289795077,41437478.414692074
CDP,"Villa Verde, TX",4875626,TX,-97.99567913713818,26.13002057402088,8.0,48.0,2764472.1987222405,18335857.468427986
CDP,"Pukalani, HI",1565900,HI,-156.34254799175523,20.834042930998155,0.0,92.0,0.0,34170542.60778512
CDP,"Llano Grande, TX",4843150,TX,-97.96877704231053,26.130805928695892,25.0,154.0,8831195.099598492,58574484.74141347
city,"Stayton, OR",4170200,OR,-122.79809351341517,44.802621255782896,16.0,130.0,5618588.1331874365,48929180.353723176
city,"Nogales, AZ",0449640,AZ,-110.93365704167951,31.362471728786435,128.0,395.0,45680764.64578667,146839978.66013664
city,"Cave Junction, OR",4111850,OR,-123.64744533688177,42.16730329364773,4.0,34.0,1454334.9782157275,12664999.953195805
CDP,"Relampago, TX",4861532,TX,-97.90587178571535,26.085087803994483,1.0,7.0,427315.8919160561,2834249.2616812973
CDP,"Kino Springs, AZ",0437935,AZ,-110.80974530871701,31.36412768673767,1.0,3.0,321295.33028376277,1032797.9360306263
city,"Jefferson, OR",4137250,OR,-123.00646616446038,44.717180659262155,7.0,54.0,2348351.2860548454,20450494.12513009
CDP,"Harbor, OR",4132100,OR,-124.25173999952207,42.038875995394015,5.0,42.0,1799033.6366934841,15666790.158945693
CDP,"Waihee-Waiehu, HI",1575510,HI,-156.50604510505002,20.919762453242853,0.0,107.0,0.0,39565195.535932794
CDP,"Beyerville, AZ",0405970,AZ,-110.87491858600639,31.39202422846787,1.0,3.0,384680.12333294045,1236547.1887169403
CDP,"Santa Maria, TX",4865744,TX,-97.84663952978624,26.07675184941286,6.0,40.0,2281925.0010483265,15135276.669522574
CDP,"Kings Valley, OR",4139350,OR,-123.426401791056,44.69801276290907,0.0,1.0,49137.89386810576,427914.77401115425
CDP,"Pistol River, OR",4158050,OR,-124.39912587955403,42.28385080085042,0.0,1.0,63805.92188843585,555650.5274473197
CDP,"Waikapu, HI",1575950,HI,-156.5220385491197,20.839160832390686,0.0,37.0,0.0,13610039.413496768
CDP,"Naco, AZ",0448310,AZ,-109.93342777484874,31.343299560840734,6.0,20.0,2308080.739997642,7419283.132301641
CDP,"Blodgett, OR",4106950,OR,-123.5210257002755,44.5969798784571,0.0,1.0,45470.88686302324,395980.8356521129
CDP,"Pirtleville, AZ",0456400,AZ,-109.56619241388813,31.36127588035959,11.0,34.0,3883957.836151336,12484911.104261378
city,"Alpine, TX",4802104,TX,-103.6645381554167,30.364206202353465,50.0,311.0,17836804.848958638,118305805.91616626
CDP,"Wailuku, HI",1577450,HI,-156.5058724533939,20.883729881105356,0.0,186.0,0.0,68896417.13464426
CDP,"Kerby, OR",4138900,OR,-123.64893342967127,42.20473394737168,1.0,10.0,451775.2630261664,3934261.2058338956
CDP,"Alpine, OR",4101700,OR,-123.36260956081374,44.33064432224389,0.0,3.0,124678.23817280566,1085753.9042074063
CDP,"Miracle Valley, AZ",0446840,AZ,-110.14853794172924,31.382900081897333,4.0,13.0,1449107.510055338,4658129.4665871095
city,"Big Lake, TX",4808212,TX,-101.45789095124097,31.1934058292262,24.0,149.0,8540504.0166624,56646424.0191813
CDP,"Palominas, AZ",0452230,AZ,-110.1211034101467,31.383837378719885,1.0,4.0,476478.7891283012,1531632.313297119
CDP,"Selma, OR",4166150,OR,-123.61505597723384,42.27972385708978,1.0,12.0,511914.1779095197,4457977.794922175
CDP,"Bellfountain, OR",4105700,OR,-123.35592939122677,44.36539393718136,0.0,1.0,55005.1050762378,479009.07538562047
CDP,"Kula, HI",1541600,HI,-156.32848014843498,20.770672710976307,0.0,79.0,0.0,29176962.732302006
city,"Iraan, TX",4836128,TX,-101.90007447722104,30.912902726848188,10.0,62.0,3549338.12264969,23541621.418454856
CDP,"O'Brien, OR",4154350,OR,-123.70770044173703,42.07013183407624,1.0,9.0,376968.320122483,3282808.8633094523
CDP,"Peoria, OR",4157300,OR,-123.20421759363515,44.45077320939173,0.0,2.0,72606.7387006339,632291.9795090191
city,"Pecos, TX",4856516,TX,-103.50567766256245,31.404614931851608,73.0,459.0,26275566.986593407,174277408.68256631
CDP,"Olinda, HI",1557350,HI,-156.2916525990646,20.826055873498213,0.0,13.0,0.0,4874580.1785386745
CDP,"Takilma, OR",4172400,OR,-123.62231309858068,42.040837100110664,1.0,6.0,274292.12398017244,2388658.589256294
CDP,"Lacomb, OR",4140150,OR,-122.74166876719518,44.58436583832386,1.0,9.0,409237.9817672092,3563827.5208690166
city,"Fort Stockton, TX",4826808,TX,-102.88570692318582,30.89267270383885,67.0,419.0,23973293.609739553,159007167.76248747
town,"Toyah, TX",4873496,TX,-103.7946116955359,31.31249781717211,1.0,5.0,305225.6370828971,2024463.7583437834
CDP,"Keokea, HI",1536050,HI,-156.3624484099156,20.72103388590181,0.0,20.0,0.0,7294240.683075502
city,"Weed, CA",0683850,CA,-122.3815435213029,41.41279367077217,3.0,42.0,1218859.822339235,15753754.553531459
CDP,"Crabtree, OR",4116350,OR,-122.9059417169562,44.63764226326972,1.0,7.0,294827.36320863455,2567488.6440669256
city,"Balmorhea, TX",4805468,TX,-103.7438747320255,30.984157788445664,4.0,25.0,1418572.4847281317,9408936.324493013
CDP,"West Scio, OR",4180750,OR,-122.88121959737147,44.70983150075892,0.0,2.0,93875.37933011251,817508.8219914589
city,"Mount Shasta, CA",0649852,CA,-122.31503924376345,41.32069222552598,4.0,49.0,1406473.1443242598,18178655.408703085
CDP,"Los Barreras, TX",4844076,TX,-98.9183532785525,26.391164362130933,3.0,16.0,904049.2679312478,5996268.846142064
CDP,"Anacua, TX",4803126,TX,-98.91915121640115,26.385581290279518,0.0,1.0,37789.84078169203,250647.89389018275
city,"Rankin, TX",4860668,TX,-101.93943741997293,31.225360112560764,6.0,40.0,2284831.9118776876,15154557.276744895
CDP,"Marion, OR",4145900,OR,-122.92772213214519,44.751249855563664,1.0,5.0,233955.04692426475,2037385.267306839
city,"Dunsmuir, CA",0620242,CA,-122.27114349694332,41.23184216815858,2.0,24.0,685686.9963862479,8862499.56199696
CDP,"Campo Verde, TX",4812226,TX,-98.91397976920976,26.391629639360904,1.0,7.0,412781.33776925143,2737846.2255696887
city,"Gold Hill, OR",4129950,OR,-123.05258517039925,42.43577287561278,3.0,21.0,926285.9694838446,8066512.829493849
city,"McCamey, TX",4845432,TX,-102.22003981246527,31.13246974552208,15.0,96.0,5517316.754127038,36594592.50796668
CDP,"Carrick, CA",0611481,CA,-122.3634571929718,41.44674650492557,0.0,2.0,56827.19775047514,734491.127624367
CDP,"Edgewood, CA",0621530,CA,-122.42607491956961,41.462169920488925,0.0,1.0,17967.422818164938,232228.8124106455
city,"Eagle Point, OR",4121550,OR,-122.80156847355452,42.46769674893112,17.0,144.0,6224377.690427069,54204666.970636815
city,"Presidio, TX",4859396,TX,-104.36524600301523,29.560360798574006,36.0,226.0,12921218.636509314,85702299.10322018
CDP,"Gazelle, CA",0629252,CA,-122.52154247076274,41.51375629757917,0.0,1.0,30084.987044369198,388848.2440364296
city,"Marfa, TX",4846620,TX,-104.02543272715334,30.310725760088925,16.0,101.0,5776031.817940159,38310566.55075332
CDP,"Tierra Dorada, TX",4872950,TX,-98.9212624604247,26.400653299487367,0.0,2.0,87207.32488082776,578418.2166696525
city,"Central Point, OR",4112400,OR,-122.91092663059091,42.37646441020921,36.0,298.0,12860193.566824397,111992321.82515807
town,"Grandfalls, TX",4830440,TX,-102.85446262405533,31.340494353948404,3.0,19.0,1063929.3635460988,7056702.24336976
CDP,"Grenada, CA",0631246,CA,-122.5260128296593,41.640584589878756,0.0,5.0,157528.3349406554,2036052.611135194
town,"Butte Falls, OR",4110050,OR,-122.56937641009712,42.54144429728075,1.0,7.0,323430.0178482782,2816573.3632674483
city,"Crane, TX",4817516,TX,-102.35042543889372,31.391892879309676,28.0,176.0,10104422.042858576,67019390.70479039
CDP,"McCloud, CA",0644784,CA,-122.1360708355405,41.25406154588897,1.0,16.0,462138.82876489346,5973141.082004043
city,"Shady Cove, OR",4166550,OR,-122.81781126610505,42.611476037612455,6.0,50.0,2178935.5624200334,18975146.172942378
town,"Valentine, TX",4874648,TX,-104.49531367849832,30.588611475832394,1.0,7.0,401153.69445180777,2660723.7966804015
city,"Rio Grande City, TX",4862168,TX,-98.82148036334314,26.380999249574185,116.0,725.0,41554290.305714436,275616280.24308944
CDP,"Tennant, CA",0678176,CA,-121.9147673494078,41.58194472867435,0.0,1.0,17131.728733599124,221427.4722985224
city,"Rogue River, OR",4163450,OR,-123.16824035903518,42.43548198039665,4.0,37.0,1607615.8710281765,13999838.576603735
CDP,"Los Alvarez, TX",4844044,TX,-98.8990359543566,26.385936726127287,3.0,17.0,959280.5736891055,6362600.383366177
town,"Van Horn, TX",4875032,TX,-104.83415216263924,31.040671824111257,17.0,105.0,5994050.130142229,39756612.09242745
CDP,"Leggett, CA",0641026,CA,-123.7251744628823,39.86353911879422,0.0,2.0,50977.33915851447,658881.7468395057
CDP,"Palo Blanco, TX",4854846,TX,-98.902408489944,26.387546248474198,2.0,11.0,639520.3824594036,4241733.588910785
CDP,"Marathon, TX",4846572,TX,-103.24333169708942,30.21575916664463,4.0,22.0,1270320.0324307245,8425625.356154606
CDP,"La Esperanza, TX",4840188,TX,-98.89227240335079,26.43131353466073,2.0,13.0,726727.7073402314,4820151.805580437
CDP,"Redway, CA",0660088,CA,-123.8220526541891,40.12085268707044,1.0,18.0,516458.94426167116,6675228.189292042
city,"Medford, OR",4147000,OR,-122.85362591351944,42.337198758912585,156.0,1294.0,55928457.440117575,487050041.0644271
CDP,"El Quiote, TX",4824013,TX,-98.90837847314559,26.384489731083058,2.0,11.0,651148.0257768474,4318856.017800072
CDP,"Terlingua, TX",4872248,TX,-103.57953730364139,29.29909520335544,0.0,3.0,174414.6497616555,1156836.433339305
CDP,"Weott, CA",0684004,CA,-123.92085950256357,40.32258712943822,0.0,4.0,121175.6422620426,1566194.3162578414
city,"Riddle, OR",4161850,OR,-123.36447194106705,42.9541986412722,2.0,20.0,876414.6742147222,7632211.267810886
CDP,"Ranchitos Del Norte, TX",4860478,TX,-98.87149206008912,26.40035140124605,1.0,6.0,354643.1211820329,2352234.0811232533
CDP,"Myers Flat, CA",0650146,CA,-123.87366609755163,40.26656451439825,0.0,2.0,61423.51521558711,793898.4982410438
CDP,"Study Butte, TX",4870688,TX,-103.54210324542768,29.33509703311982,2.0,12.0,700565.5098759831,4646626.340579542
city,"Glendale, OR",4129350,OR,-123.4293774277831,42.73809972662332,2.0,15.0,667395.2749250187,5811976.781345529
CDP,"Mi Ranchito Estate, TX",4848750,TX,-98.87332908199717,26.38780989964863,2.0,14.0,799400.4780742545,5302166.986138482
CDP,"Coyanosa, TX",4817408,TX,-103.06482796685498,31.240978191527905,1.0,8.0,470919.55435646995,3123458.370016123
city,"Canyonville, OR",4111000,OR,-123.28046642477591,42.927059959666025,4.0,32.0,1386862.0493222089,12077415.487389443
CDP,"Shelter Cove, CA",0671372,CA,-124.05558882861071,40.03916593886507,1.0,10.0,290403.69438661926,3753465.688962758
CDP,"Santel, TX",4865777,TX,-98.88328318134039,26.37556019760282,0.0,2.0,124997.16566251982,829066.1105598353
CDP,"Imperial, TX",4835828,TX,-102.69465045238712,31.266844590639476,2.0,14.0,805214.2997329765,5340728.200583125
city,"Chiloquin, OR",4113050,OR,-121.86775251224877,42.57641717683306,2.0,13.0,544183.8395542459,4738996.452481738
CDP,"Garberville, CA",0628154,CA,-123.79489017630354,40.10042117128776,1.0,13.0,384001.43185799016,4963215.781520539
CDP,"La Escondida, TX",4840186,TX,-98.87372752924526,26.380649655451542,1.0,8.0,436036.6244041388,2892091.0833482626
CDP,"El Brazil, TX",4822853,TX,-98.72682787686232,26.468650664402524,0.0,2.0,136624.80897996348,906188.5394491222
CDP,"Miranda, CA",0648060,CA,-123.81725214362876,40.2288831159712,1.0,8.0,218951.85015624246,2829951.1093762373
CDP,"Sanderson, TX",4865084,TX,-102.40791686559835,30.150794068192646,7.0,43.0,2453432.7399806213,16272832.495639555
CDP,"La Carla, TX",4839994,TX,-98.7405919178876,26.43538528062147,1.0,4.0,220925.22303143033,1465326.148896453
CDP,"Alderpoint, CA",0600786,CA,-123.61573889407725,40.16134342718311,0.0,3.0,81480.17324516657,1053130.6609319968
CDP,"Redford, TX",4861076,TX,-104.18280886393856,29.435169907234254,1.0,5.0,261621.97464248328,1735254.6500089574
city,"Grants Pass, OR",4130550,OR,-123.33248043337993,42.4340295758821,71.0,586.0,25341952.010724276,220689061.21166307
CDP,"Sammy Martinez, TX",4864442,TX,-98.75129073726072,26.432861761642055,1.0,6.0,337201.65620586736,2236550.437789323
CDP,"Benbow, CA",0605262,CA,-123.7653837042669,40.060268103788175,0.0,5.0,134964.59465737847,1744416.4281078717
CDP,"Fort Hancock, TX",4826724,TX,-105.84454265639644,31.28370045488448,14.0,90.0,5139418.346310115,34088113.56906485
CDP,"White City, OR",4181450,OR,-122.8322314352461,42.431665874366665,17.0,138.0,5964020.19306621,51937357.34714487
CDP,"Redcrest, CA",0659906,CA,-123.94741563847323,40.398774942597,0.0,1.0,37606.233805461496,486060.305045537
CDP,"San Fernando, TX",4865378,TX,-98.83507209345073,26.403308518299895,1.0,4.0,203483.7580552648,1349642.5055625224
CDP,"Sierra Blanca, TX",4867772,TX,-105.33954023370562,31.18342595631373,5.0,28.0,1622056.2427833965,10758578.830055537
CDP,"Phillipsville, CA",0656854,CA,-123.784449179716,40.21174106336607,0.0,2.0,58916.43296188968,761494.4779046746
CDP,"Airport Heights, TX",4801500,TX,-98.83669470619603,26.408735214842338,1.0,8.0,485454.1085032745,3219861.406127732
CDP,"Trail, OR",4174400,OR,-122.81351223580167,42.65676677992525,2.0,13.0,549317.6493613615,4783703.966184396
city,"Rio Dell, CA",0660900,CA,-124.1105211843133,40.50236594410162,4.0,49.0,1420262.0967195956,18356877.520553116
CDP,"Fort Davis, TX",4826688,TX,-103.892182998674,30.578374331675302,10.0,63.0,3619103.9825543524,24004355.991790578
CDP,"Flor Rio, TX",4826130,TX,-98.90149796666968,26.401301655361994,1.0,7.0,383712.22947564215,2545040.1533464706
CDP,"Wimer, OR",4182850,OR,-123.14800030489049,42.54457489755602,1.0,12.0,506046.9667013878,4406883.493547708
city,"Fortuna, CA",0625296,CA,-124.14167765784943,40.58552653936072,14.0,174.0,5008732.495845188,64737831.96200947
CDP,"Benjamin Perez, TX",4807642,TX,-98.89965261717707,26.40602824751952,0.0,2.0,98834.96819827147,655540.6455589394
CDP,"Foots Creek, OR",4126165,OR,-123.1407606257526,42.384506754502944,2.0,14.0,593321.7334223517,5166911.226492893
city,"Ferndale, CA",0623910,CA,-124.26190853084806,40.57989180939407,2.0,20.0,572450.4479275806,7398917.976804285
CDP,"Barrera, TX",4805690,TX,-98.89850492586923,26.39254151112575,1.0,6.0,343015.4778645892,2275111.652233966
CDP,"Prospect, OR",4160100,OR,-122.47564380994558,42.75259287303177,1.0,8.0,338098.04586860834,2944309.1167036137
city,"Pharr, TX",4857200,TX,-98.19047207040595,26.168815398966764,585.0,3658.0,209518504.93701807,1389669046.1560624
city,"Eureka, CA",0623042,CA,-124.16043607126686,40.78677257392691,32.0,399.0,11511686.014894046,148788460.04449496
CDP,"Fernando Salinas, TX",4825744,TX,-98.83107242699035,26.397879266717176,0.0,1.0,46510.5732697748,308489.7155571479
CDP,"Fruitdale, OR",4127350,OR,-123.3011818448934,42.41820002534138,2.0,20.0,884482.0896259038,7702465.932200777
CDP,"El Refugio, TX",4824018,TX,-98.75894418955183,26.34063789285373,3.0,17.0,982535.8603239927,6516845.241144751
CDP,"Redwood, OR",4161250,OR,-123.39136375671194,42.422028353101986,5.0,45.0,1941313.5084906858,16905826.9672765
city,"Blue Lake, CA",0607162,CA,-123.9928594610546,40.8813456052026,1.0,18.0,526487.2732764609,6804844.270637519
city,"McAllen, TX",4845384,TX,-98.24517045475102,26.218628992250192,1080.0,6753.0,386776113.4897886,2565361913.358798
CDP,"La Casita, TX",4840000,TX,-98.73373223981163,26.336898332429463,1.0,7.0,409874.4269398905,2718565.6183473663
city,"Arcata, CA",0602476,CA,-124.0700562536265,40.86448172932084,20.0,253.0,7290177.346709852,94225490.46810538
CDP,"Merlin, OR",4147650,OR,-123.4250098636797,42.52001555708104,3.0,28.0,1210112.3116772315,10538199.65848365
CDP,"La Puerta, TX",4841458,TX,-98.75052393060552,26.346815866964736,5.0,32.0,1819726.1791799394,12069660.121173415
CDP,"New Hope, OR",4152275,OR,-123.35895014781539,42.36929181918093,3.0,27.0,1168308.4318192906,10174152.761190578
CDP,"Las Lomas, TX",4841566,TX,-98.77464909354492,26.363831426975803,27.0,172.0,9839893.157386733,65264855.447559126
CDP,"Cutten, CA",0617722,CA,-124.1445651129652,40.765675246939544,4.0,46.0,1326664.3592482249,17147127.427995335
city,"Edinburg, TX",4822660,TX,-98.16371303845852,26.31558439686548,642.0,4015.0,229994784.81903642,1525481643.4300969
CDP,"Santa Cruz, TX",4865708,TX,-98.76761481935974,26.35368917414457,0.0,3.0,154066.27395612907,1021872.1827830527
CDP,"Humboldt Hill, CA",0634928,CA,-124.19869910102308,40.72187922296885,4.0,51.0,1467896.659539847,18972553.906944126
city,"Alamo, TX",4801576,TX,-98.11824045812796,26.179767909636748,151.0,944.0,54085982.89108938,358734977.9785184
CDP,"Hydesville, CA",0636126,CA,-124.08224837787702,40.55787713286428,1.0,18.0,531919.2848261386,6875052.981366318
CDP,"Lasara, TX",4841548,TX,-97.90873007412901,26.46346468720423,10.0,59.0,3403992.581181644,22577591.057338767
city,"Winston, OR",4183400,OR,-123.42412302683954,43.12012981648183,11.0,92.0,3971368.5865043686,34584455.242841795
CDP,"Martinez, TX",4846854,TX,-98.75291028246653,26.422156267431966,1.0,4.0,218018.3122020694,1446045.5416741313
CDP,"South Alamo, TX",4868846,TX,-98.10784941053397,26.151766871589427,27.0,170.0,9735244.367529739,64570753.58755553
CDP,"McKinleyville, CA",0644910,CA,-124.0849819887843,40.94760820105193,18.0,228.0,6573987.5162369525,84968741.99201594
CDP,"Hargill, TX",4832300,TX,-98.01455862244029,26.442289219174416,7.0,45.0,2598778.281448668,17236862.856755644
CDP,"Myrtletown, CA",0650188,CA,-124.12864734209856,40.78845905804213,6.0,69.0,1978087.898167275,25566772.045395248
CDP,"Cesar Chavez, TX",4814038,TX,-98.11425881446878,26.310481987799204,16.0,101.0,5802194.015404407,38484092.01575421
CDP,"El Rancho Vela, TX",4824015,TX,-98.76901593738988,26.403815226078688,2.0,15.0,866259.4271495559,5745620.952251881
city,"Sutherlin, OR",4171650,OR,-123.32295514336766,43.38849284664668,16.0,135.0,5832007.94088324,50787735.56621938
CDP,"Pine Hills, CA",0657204,CA,-124.15510314086512,40.731288991947764,4.0,46.0,1334603.4530516001,17249740.159060504
CDP,"Doolittle, TX",4820926,TX,-98.1167693569892,26.359770695564716,24.0,150.0,8563759.303297287,56800668.876959875
city,"Roseburg, OR",4163650,OR,-123.35223604718027,43.22205175809046,44.0,367.0,15871539.719398163,138216472.00560284
CDP,"Faysville, TX",4825656,TX,-98.1295298300309,26.404000011077617,4.0,22.0,1276133.8540894464,8464186.570599249
CDP,"El Mesquite, TX",4823278,TX,-98.77157876343297,26.384685115518185,0.0,2.0,119183.34400379795,790504.8961151917
CDP,"Westhaven-Moonstone, CA",0684385,CA,-124.10219655034493,41.044778767360754,1.0,18.0,508102.0034160131,6567214.788170812
CDP,"Lopezville, TX",4843972,TX,-98.15750053447081,26.248763221449654,37.0,233.0,13328186.152619844,88401584.11434524
city,"Oakland, OR",4154000,OR,-123.29692738387126,43.42337805875323,2.0,16.0,694531.1267626293,6048287.925202434
CDP,"Camargito, TX",4812010,TX,-98.73879785768156,26.34521898863376,3.0,19.0,1110439.9368158735,7365191.958926909
CDP,"Monte Alto, TX",4849080,TX,-97.97272405971466,26.374373189283343,16.0,103.0,5889401.340285235,39062510.23242386
CDP,"Manuel Garcia, TX",4846492,TX,-98.70164329581075,26.33365449785998,2.0,11.0,604637.4525070725,4010366.302242924
CDP,"Muniz, TX",4850058,TX,-98.08967141649441,26.257823182258214,11.0,72.0,4098744.269398905,27185656.183473665
CDP,"Willow Creek, CA",0685642,CA,-123.64118418326609,40.93847390205124,2.0,25.0,719532.6068111632,9299953.83653794
city,"Myrtle Creek, OR",4150950,OR,-123.28118175579488,43.022564323239344,7.0,61.0,2639511.642258398,22986048.830837972
CDP,"North Alamo, TX",4851900,TX,-98.12604803987458,26.21580445044326,26.0,163.0,9322463.029760487,61832907.36198584
CDP,"El Chaparral, TX",4822920,TX,-98.76733869333816,26.348795103012666,4.0,24.0,1374968.8222877178,9119727.216158187
CDP,"Murillo, TX",4850092,TX,-98.12613406090905,26.26466969281936,61.0,383.0,21918107.65338138,145375778.456306
CDP,"Fieldbrook, CA",0624008,CA,-124.02500306011495,40.97224342628628,1.0,13.0,374808.79692776623,4844401.040287185
CDP,"Glide, OR",4129750,OR,-123.0665667726761,43.30293376138533,4.0,31.0,1345058.1694642683,11713368.590096373
CDP,"Loleta, CA",0642328,CA,-124.22256479263478,40.64088518936958,1.0,11.0,328845.6222766466,4250327.334120419
CDP,"San Carlos, TX",4865048,TX,-98.06305267636954,26.29566783274665,27.0,169.0,9668385.418454438,64127299.62144215
CDP,"Garza-Salinas II, TX",4829114,TX,-98.75953862169709,26.351774039147397,6.0,36.0,2055185.9563581743,13631389.306181477
CDP,"Green, OR",4130750,OR,-123.38549821413919,43.15086363325778,16.0,129.0,5584851.668740678,48635388.12082
city,"Benavides, TX",4807528,TX,-98.4095348689644,27.598163252085364,11.0,68.0,3869098.313879392,25662488.21291025
CDP,"Scotia, CA",0670518,CA,-124.10318071177645,40.477495847551175,1.0,12.0,358512.76227873296,4633774.908100787
CDP,"B E, TX",4805520,TX,-98.75367526489511,26.35653064460746,4.0,26.0,1479617.6121447112,9813829.07616177
CDP,"Roseburg North, OR",4163660,OR,-123.303478735344,43.26473232603209,12.0,103.0,4441478.884555948,38678386.1404709
city,"Kingsville, TX",4839352,TX,-97.86095615694816,27.509514754593358,214.0,1338.0,76623262.55112465,508217525.773179
CDP,"Manila, CA",0645414,CA,-124.16304121821463,40.851570703024706,1.0,11.0,318399.44621957396,4115310.58271888
CDP,"Amada Acres, TX",4802286,TX,-98.73925235409273,26.343264536945792,1.0,5.0,293597.99376545346,1947341.3294544967
city,"Falfurrias, TX",4825368,TX,-98.1451956598479,27.22438910254804,41.0,256.0,14671178.955784593,97309224.65105787
CDP,"Samoa, CA",0664392,CA,-124.18915128034405,40.81463485875237,0.0,4.0,104879.60761300927,1355568.184071442
CDP,"Chaparrito, TX",4814266,TX,-98.73535157832919,26.340816617257417,1.0,6.0,363363.8536701157,2410075.9027902186
CDP,"Tri-City, OR",4174650,OR,-123.30000035173289,42.98923299704236,8.0,67.0,2911603.5620355206,25355547.057078842
city,"Premont, TX",4859384,TX,-98.12441796882109,27.35860585660493,22.0,135.0,7741103.538588145,51344257.03304282
CDP,"Fields Landing, CA",0624022,CA,-124.21762203155397,40.724778136093605,0.0,4.0,120757.79521975969,1560793.64620178
CDP,"Netos, TX",4850742,TX,-98.75851319641434,26.41080738487121,0.0,2.0,98834.96819827147,655540.6455589394
CDP,"Fair Oaks, OR",4124100,OR,-123.21949171497226,43.41089432382072,1.0,5.0,203885.5894825881,1775526.9727626997
CDP,"Concepcion, TX",4816300,TX,-98.35562793707628,27.395132766466585,0.0,3.0,177321.56059101646,1176117.0405616267
CDP,"Indianola, CA",0636420,CA,-124.08083164358885,40.81324756286085,1.0,11.0,327174.234107515,4228724.6538961725
CDP,"Realitos, TX",4860932,TX,-98.53015598617947,27.445415621832513,1.0,9.0,523243.94928496657,3470509.3000179147
city,"Weslaco, TX",4877272,TX,-97.98782872948809,26.159019961935176,295.0,1847.0,105802833.45624961,701756261.0708448
CDP,"Covelo, CA",0616728,CA,-123.24987044290464,39.8024695857663,1.0,18.0,524815.8851073293,6783241.590413271
CDP,"Melrose, OR",4147350,OR,-123.45745926913854,43.252863688963444,2.0,13.0,553718.0577674605,4822024.692215245
CDP,"Ranchos Penitas West, TX",4860539,TX,-99.60351887111827,27.674469819355306,5.0,30.0,1700542.8351761412,11279155.225058222
city,"Mercedes, TX",4847700,TX,-97.91387151314484,26.153297538819153,129.0,805.0,46103605.753664285,305790430.54602295
CDP,"Days Creek, OR",4118150,OR,-123.16574218027617,42.97049267232876,1.0,5.0,207552.5964876706,1807460.9111217414
CDP,"Los Corralitos, TX",4844079,TX,-99.55747588700046,27.64119341576873,0.0,2.0,104648.7898569933,694101.8600035829
CDP,"Hayfork, CA",0632562,CA,-123.12991823361368,40.561021936553864,3.0,35.0,1008682.7600709338,13037217.515332514
city,"La Villa, TX",4841788,TX,-97.92687903821577,26.297677252249617,16.0,101.0,5767311.085452077,38252724.729086354
CDP,"Los Minerales, TX",4844145,TX,-99.61782717306983,27.655482958382553,0.0,1.0,58138.21658721851,385612.144446435
CDP,"Lookingglass, OR",4143650,OR,-123.49990484755332,43.184801937848206,2.0,15.0,648326.8384985895,5645920.301878513
CDP,"Lewiston, CA",0641278,CA,-122.8224961372666,40.69693434105853,1.0,18.0,509355.5445428618,6583416.798338995
CDP,"Ricardo, TX",4861724,TX,-97.84764786572704,27.41855476721717,8.0,53.0,3023187.2625353625,20051831.511214618
CDP,"Weaverville, CA",0683794,CA,-122.92738050339291,40.74880069106361,4.0,53.0,1532245.1040514144,19804257.095577605
CDP,"Dillard, OR",4119600,OR,-123.42619366581378,43.108238816222304,1.0,9.0,375501.51732045005,3270035.2879658355
city,"Elsa, TX",4824036,TX,-97.99375919812451,26.2978846101824,47.0,293.0,16787410.039559346,111345506.7089081
CDP,"Airport Road Addition, TX",4801514,TX,-98.09809276397908,27.218988033779752,1.0,5.0,267435.7963012052,1773815.864453601
CDP,"Burnt Ranch, CA",0609150,CA,-123.50820204816708,40.81102812491923,0.0,4.0,119922.10113519387,1549992.306089657
CDP,"Cantu Addition, TX",4812502,TX,-98.15567756094592,27.201993236697376,2.0,10.0,558126.8792372977,3701876.586685776
city,"Shasta Lake, CA",0671225,CA,-122.37750468176631,40.678968790548815,12.0,145.0,4175545.493533075,53968895.8702228
city,"Edcouch, TX",4822528,TX,-97.96308928099396,26.293722684260537,26.0,166.0,9485250.0362047,62912621.366435856
CDP,"Encino, TX",4824252,TX,-98.11519850687982,26.936396824198557,1.0,7.0,418595.1594279732,2776407.4400143316
CDP,"San Isidro, TX",4865432,TX,-98.44790239535811,26.7136194782405,2.0,12.0,700565.5098759831,4646626.340579542
CDP,"Douglas City, CA",0619724,CA,-122.9260556016902,40.663631863873086,1.0,11.0,304192.6467819552,3931687.8008127883
CDP,"Flowella, TX",4826220,TX,-98.06453580270689,27.219963409078083,1.0,6.0,340108.5670352283,2255831.0450116447
CDP,"Delmita, TX",4819732,TX,-98.42306670261212,26.685149699956344,2.0,11.0,630799.649971321,4183891.7672438202
CDP,"Catarina, TX",4813324,TX,-99.61606137530421,28.349851727402832,1.0,6.0,343015.4778645892,2275111.652233966
city,"Redding, CA",0659920,CA,-122.36502632337307,40.56975913060619,106.0,1311.0,37848167.2429433,489187293.0079966
CDP,"Hyampom, CA",0636098,CA,-123.46883454966516,40.62617967779488,0.0,4.0,102790.37240159475,1328564.8337911346
CDP,"Hebbronville, TX",4833008,TX,-98.68606670499973,27.323979198966548,38.0,236.0,13517135.356528303,89654823.58379613
city,"Anderson, CA",0602042,CA,-122.29619740049878,40.45091526377456,12.0,148.0,4270814.619173577,55200248.64300483
CDP,"Las Lomitas, TX",4841569,TX,-98.6628854878575,27.33783989122164,2.0,13.0,741262.261487036,4916554.841692046
CDP,"Heidelberg, TX",4833092,TX,-97.88501800937387,26.183076811108002,15.0,92.0,5284763.887778163,35052143.93018094
CDP,"Junction City, CA",0637596,CA,-123.06144281111173,40.727408290076575,1.0,10.0,289985.8473443364,3748065.0189066962
city,"Encinal, TX",4824240,TX,-99.35505977844475,28.04069042484795,5.0,29.0,1648218.440247645,10932104.295056432
CDP,"Indian Hills, TX",4835915,TX,-97.91836994299418,26.212231099573145,22.0,139.0,7976563.315766379,52905986.218050875
CDP,"Big Bend, CA",0606475,CA,-121.92401446133299,41.010835018593895,0.0,1.0,42620.39831285636,550868.3457182752
CDP,"Mirando City, TX",4848756,TX,-99.00062128794633,27.44009549640363,3.0,19.0,1095905.3826690689,7268788.922815299
CDP,"Mad River, CA",0645092,CA,-123.49244083065439,40.432027862222974,1.0,6.0,180092.07522393228,2327688.794162516
CDP,"La Blanca, TX",4839988,TX,-98.02859792008981,26.304795582898766,21.0,131.0,7482388.474775023,49628282.99025618
CDP,"Oilton, TX",4853556,TX,-98.96722706077266,27.469273696304917,3.0,18.0,1043580.9877405722,6921737.992813507
CDP,"French Gulch, CA",0626056,CA,-122.63116947007016,40.71654498499671,0.0,5.0,145828.61775673402,1884833.8495654713
CDP,"Las Pilas, TX",4841582,TX,-99.18315963187035,27.681537972766204,0.0,1.0,84300.41405146684,559137.6094473307
CDP,"Trinity Center, CA",0680476,CA,-122.70832600717274,40.98406725525177,0.0,4.0,114072.2425432332,1474382.9253047956
CDP,"Laguna Seca, TX",4840320,TX,-97.92618229455998,26.27930228024803,2.0,14.0,813935.0322210592,5398570.02225009
CDP,"Aguilares, TX",4801420,TX,-99.09323304225828,27.451626694218913,0.0,1.0,61045.12741657944,404892.75166875677
CDP,"Trinity Village, CA",0680483,CA,-123.51320686515243,40.878916052632306,0.0,4.0,126189.80676943746,1631002.3569305798
CDP,"Lakehead, CA",0639514,CA,-122.39239790499029,40.900750511587376,1.0,7.0,199313.0391689459,2576119.6167413457
CDP,"Midway North, TX",4848272,TX,-98.01732801446828,26.188014197108757,40.0,249.0,14267118.350503422,94629220.24715514
CDP,"Four Points, TX",4827124,TX,-99.4548235929503,27.796407389091012,0.0,1.0,52324.39492849665,347050.93000179145
CDP,"Bonanza Hills, TX",4809310,TX,-99.46950218279505,27.7947679202089,0.0,2.0,110462.61151571517,732663.0744482265
CDP,"Midway South, TX",4848280,TX,-98.0208529257708,26.156675635018868,18.0,112.0,6441714.397863812,42725825.604665
CDP,"Millville, CA",0647724,CA,-122.16962298529617,40.55758537452889,1.0,11.0,315892.3639658766,4082906.562382511
CDP,"Ruth, CA",0663386,CA,-123.34827425322449,40.29426324364297,0.0,3.0,83569.40845658109,1080134.0112123045
CDP,"Hillside Acres, TX",4834105,TX,-99.1777131573077,27.676160451922502,0.0,2.0,90114.2357101887,597698.8238919743
CDP,"Mila Doce, TX",4848320,TX,-97.96005494873555,26.22291463659992,52.0,326.0,18679808.98947331,123897182.01063956
city,"Tehama, CA",0678106,CA,-122.12690083319387,40.02177619609058,1.0,6.0,179674.22818164935,2322288.124106454
CDP,"Olivarez, TX",4853934,TX,-97.9930867415559,26.22854728285173,34.0,213.0,12188677.10751036,80843586.08319509
city,"Red Bluff, CA",0659892,CA,-122.24126975070914,40.173462347551116,16.0,205.0,5907521.483795717,76354673.25259781
CDP,"Los Huisaches, TX",4844123,TX,-99.47580299053503,27.907028338151324,0.0,1.0,49417.484099135734,327770.3227794697
CDP,"Linn, TX",4842916,TX,-98.1297448519482,26.566197727805132,7.0,42.0,2386573.79090532,15829378.529526157
CDP,"Sunset Acres, TX",4871289,TX,-99.45660341410066,27.79416544804446,0.0,1.0,69765.85990466221,462734.573335722
CDP,"Bixby, TX",4808410,TX,-97.85616619670856,26.13992951715822,5.0,29.0,1662752.9943944493,11028507.33116804
city,"Corning, CA",0616322,CA,-122.18199119264575,39.92819999160917,9.0,110.0,3187755.085576286,41201711.85769336
CDP,"Los Veteranos II, TX",4844168,TX,-99.44330888467738,27.771134501515267,0.0,1.0,72672.77073402314,482015.1805580437
CDP,"Ratamosa, TX",4860686,TX,-97.84444694060596,26.200568833555252,2.0,13.0,752889.9048044798,4993677.270581334
city,"Orland, CA",0654274,CA,-122.18537548883306,39.74630040107665,9.0,108.0,3105439.218246554,40137779.856649235
CDP,"Botines, TX",4809598,TX,-99.4571200546577,27.771896292208343,1.0,6.0,348829.299523311,2313672.86667861
CDP,"Gerber, CA",0629392,CA,-122.14823843742917,40.06144290574134,1.0,16.0,459213.89946891315,5935336.391611613
CDP,"Solis, TX",4868678,TX,-97.84400102663295,26.170845538742306,5.0,29.0,1662752.9943944493,11028507.33116804
CDP,"Bruni, TX",4810876,TX,-98.83221323204634,27.428162545941802,3.0,20.0,1122067.5801333173,7442314.387816195
city,"Penitas, TX",4856696,TX,-98.44255158122884,26.250783658965585,38.0,236.0,13490973.159064056,89481298.11879523
CDP,"Medina, TX",4847406,TX,-99.26148935040752,26.929014436184474,32.0,201.0,11517180.705927987,76389765.81483877
city,"Palmview, TX",4854804,TX,-98.37898030458769,26.23024974535577,47.0,292.0,16735085.64463085,110998455.77890632
CDP,"Los Molinos, CA",0644140,CA,-122.09814171730275,40.02705521484105,2.0,29.0,829844.2259738502,10725730.731338184
CDP,"San Ygnacio, TX",4865792,TX,-99.43201835407045,27.0480492039509,5.0,34.0,1933095.7015250155,12821603.802843964
city,"Palmhurst, TX",4854780,TX,-98.29531831663277,26.258013912350506,22.0,135.0,7726568.98444134,51247853.99693121
CDP,"Zapata, TX",4880716,TX,-99.26118642113865,26.902622846828496,41.0,256.0,14691527.331590118,97444188.90161411
CDP,"Rancho Tehama Reserve, CA",0659604,CA,-122.4418246186506,40.00098749167004,2.0,22.0,620920.7048323976,8025395.703307424
city,"Mission, TX",4848768,TX,-98.32277051304423,26.203340646437454,641.0,4012.0,229797114.8826399,1524170562.138979
CDP,"Paskenta, CA",0656042,CA,-122.54583339366991,39.883274625675256,0.0,2.0,46798.86873568541,604875.0462788905
city,"La Joya, TX",4840384,TX,-98.46988314119669,26.251780339302723,33.0,206.0,11822406.343010884,78414229.57318254
CDP,"Ramireno, TX",4860380,TX,-99.38219818785147,27.01449399103004,0.0,2.0,101741.8790276324,674821.2527812612
CDP,"Vina, CA",0682786,CA,-122.05170620213165,39.934180285330676,0.0,3.0,94015.58451365374,1215150.7626138425
city,"Granjeno, TX",4830608,TX,-98.3031248912765,26.1373956110051,2.0,15.0,860445.605490834,5707059.737807238
CDP,"Las Palmas, TX",4841579,TX,-99.27601330181199,26.95163274909262,1.0,3.0,191856.11473782107,1272520.0766732353
city,"Alton, TX",4802212,TX,-98.31138348541356,26.28884642901186,103.0,642.0,36769515.080586344,243880400.7551478
CDP,"Proberta, CA",0658814,CA,-122.17760869683283,40.07615734743873,0.0,4.0,113654.39550095028,1468982.255248734
CDP,"South Fork Estates, TX",4868966,TX,-98.72395088223374,27.269655907409625,1.0,4.0,200576.84722590388,1330361.8983402008
CDP,"La Victoria, TX",4841782,TX,-98.62948803398233,26.347791505736065,1.0,9.0,514523.21679688385,3412667.47835095
CDP,"Bend, CA",0605276,CA,-122.20953999043117,40.256027272355084,1.0,9.0,256140.23691942106,3310610.744365713
CDP,"Thompsonville, TX",4872758,TX,-98.78467080797441,27.260011934496234,0.0,2.0,133717.8981506026,886907.9322268005
city,"Rio Bravo, TX",4862138,TX,-99.48194120398544,27.364779766154637,39.0,243.0,13909568.318492029,92257705.55880956
CDP,"Elias-Fela Solis, TX",4823062,TX,-98.62364393735238,26.385639025598195,0.0,2.0,90114.2357101887,597698.8238919743
CDP,"Lake California, CA",0639460,CA,-122.21024394352068,40.36083417946602,4.0,45.0,1296579.3722038555,16758279.183958905
CDP,"Eugenio Saenz, TX",4824738,TX,-98.63312343440512,26.35825334478979,1.0,8.0,473826.4651858309,3142738.9772384455
CDP,"Paynes Creek, CA",0656196,CA,-121.91740920201269,40.340892271308505,0.0,1.0,24235.128452408517,313238.8632515683
CDP,"Olmito Olmito, TX",4853970,TX,-98.64197129644452,26.340010779598465,2.0,14.0,805214.2997329765,5340728.200583125
CDP,"Richfield, CA",0660592,CA,-122.17330482969489,39.97388679727159,0.0,5.0,139143.06508020754,1798423.128668487
CDP,"Gutierrez, TX",4831646,TX,-98.63156451899317,26.340046328380332,1.0,4.0,241273.5988369568,1600290.3994527052
city,"Laredo, TX",4841464,TX,-99.48677975231595,27.548257262481215,1969.0,12316.0,705440399.3368213,4678959918.891376
CDP,"El Castillo, TX",4822892,TX,-98.63865940493963,26.33492565253296,2.0,10.0,558126.8792372977,3701876.586685776
CDP,"Flournoy, CA",0624568,CA,-122.44616200752415,39.92835562136391,0.0,1.0,42202.55127057345,545467.6756622138
CDP,"Cottonwood, CA",0616630,CA,-122.28609634406037,40.39042739572218,4.0,48.0,1382655.8629141345,17870817.215507578
CDP,"El Socio, TX",4824055,TX,-98.6370992498203,26.340454300558342,1.0,7.0,386619.14030500315,2564320.760568793
CDP,"Nord, CA",0651574,CA,-121.95490586449246,39.77378862723953,0.0,5.0,132875.35944596396,1717413.0778275642
CDP,"Laredo Ranchettes, TX",4841473,TX,-99.35996361701125,27.491168096605545,0.0,1.0,78486.59239274499,520576.3950026873
CDP,"West Sharyland, TX",4877866,TX,-98.33970703459622,26.2722993764897,19.0,121.0,6915540.863049641,45868564.58190344
CDP,"Ranchitos Las Lomas, TX",4860482,TX,-99.23454587342212,27.62826061077108,2.0,14.0,790679.7455861717,5244325.164471515
CDP,"Abram, TX",4801060,TX,-98.41788347744227,26.21798239652172,20.0,123.0,7057979.493688327,46813314.335797206
city,"Sonoma, CA",0672646,CA,-122.45983799452145,38.290337014776135,13.0,157.0,4544922.278911163,58743088.19978118
CDP,"Perezville, TX",4856804,TX,-98.40232554373765,26.239541947916862,44.0,276.0,15822315.644211518,104944345.11109728
city,"Rohnert Park, CA",0662546,CA,-122.69639501837834,38.34804791727817,48.0,600.0,17305553.103188816,223674151.04184404
CDP,"Colorado Acres, TX",4816110,TX,-99.2143895684993,27.644906260285563,2.0,15.0,877887.0704669994,5822743.381141168
CDP,"Citrus City, TX",4815028,TX,-98.39231446292716,26.32807113469792,19.0,121.0,6903913.219732198,45791442.15301415
city,"Petaluma, CA",0656784,CA,-122.62662897108795,38.24231550120293,68.0,839.0,24207132.700575564,312877018.3578122
CDP,"Doffing, TX",4820734,TX,-98.38557969034281,26.278779000088946,42.0,261.0,14961870.038720684,99237285.37329005
city,"Point Arena, CA",0657876,CA,-123.69511809032015,38.91227914187437,1.0,6.0,187613.32198502458,2424900.8551716236
CDP,"La Homa, TX",4840342,TX,-98.35777033646907,26.277074816657365,102.0,640.0,36670680.112388074,243224860.1095889
CDP,"La Coma, TX",4840100,TX,-99.30149765693483,27.502878016279336,0.0,2.0,142438.63063868537,944749.7538937657
CDP,"Pueblo Nuevo, TX",4859798,TX,-99.3098819048859,27.493907678801165,4.0,27.0,1552290.3828787343,10295844.256719815
CDP,"Palmview South, TX",4854810,TX,-98.37705015937804,26.216024941985868,46.0,290.0,16583926.28150408,109995864.20334558
city,"Fort Bragg, CA",0625058,CA,-123.80320376155439,39.44154824817112,8.0,104.0,3015602.1041557286,38976635.794596
CDP,"Tanquecitos South Acres, TX",4871820,TX,-99.3796998455575,27.489717581715443,2.0,14.0,819748.853879781,5437131.236694733
city,"Sullivan City, TX",4870868,TX,-98.56444129478788,26.275217584424453,33.0,207.0,11863103.094621938,78684158.07429504
city,"Novato, CA",0652582,CA,-122.55755970612614,38.09198062861761,61.0,757.0,21852146.770269107,282438841.9218494
CDP,"San Carlos II, TX",4865050,TX,-99.36838746738148,27.490038397107327,3.0,16.0,918583.8220780524,6092671.882253672
CDP,"Quesada, TX",4860098,TX,-98.58199382806386,26.281478378845723,0.0,1.0,75579.68156338406,501295.7877803655
city,"Yountville, CA",0686930,CA,-122.36691452667834,38.39552892089088,3.0,42.0,1216352.740085538,15721350.533195091
CDP,"Los Altos, TX",4844038,TX,-99.3858232805363,27.490490567193604,1.0,9.0,491267.93016199634,3258422.6205723756
CDP,"Nina, TX",4851552,TX,-98.58098825809657,26.281133878699,1.0,8.0,430222.802745417,2853529.868903619
CDP,"Tanquecitos South Acres II, TX",4871824,TX,-99.38817759595048,27.486960564162082,0.0,3.0,174414.6497616555,1156836.433339305
CDP,"Cuevitas, TX",4818104,TX,-98.5787210975915,26.258491777819607,0.0,2.0,119183.34400379795,790504.8961151917
CDP,"San Carlos I, TX",4865049,TX,-99.37250594911949,27.49041074676688,3.0,19.0,1110439.9368158735,7365191.958926909
CDP,"Havana, TX",4832792,TX,-98.50900792198703,26.250734135681633,3.0,21.0,1209274.905014145,8020732.604485848
CDP,"Ranchitos East, TX",4860480,TX,-99.36680301840816,27.4900868642591,2.0,13.0,744169.1723163968,4935835.448914367
city,"Napa, CA",0650258,CA,-122.30109333334048,38.298042462358374,89.0,1105.0,31900532.443088423,412314155.43001693
CDP,"Los Veteranos I, TX",4844167,TX,-99.21858372651602,27.63356361693089,0.0,1.0,72672.77073402314,482015.1805580437
city,"La Grulla, TX",4840288,TX,-98.64846819128286,26.272128691459596,13.0,81.0,4656871.148636202,30887532.770159442
CDP,"Boyes Hot Springs, CA",0607848,CA,-122.48874847637127,38.312646223514484,8.0,98.0,2823392.464705592,36492327.568807706
CDP,"Los Centenarios, TX",4844078,TX,-99.2129877104495,27.612259729212113,1.0,5.0,258715.06381312234,1715974.0427866357
CDP,"West Alto Bonito, TX",4877336,TX,-98.6631534167311,26.314311840150246,6.0,37.0,2098789.618798588,13920598.414516304
CDP,"Eldridge, CA",0621894,CA,-122.5065192674036,38.33388732876371,1.0,18.0,517294.6383462371,6686029.529404165
CDP,"Alto Bonito Heights, TX",4802194,TX,-98.64132910939496,26.31577733318333,3.0,18.0,1017418.7902763239,6748212.527812612
CDP,"Los Arcos, TX",4844072,TX,-99.21048811245076,27.614419207143015,1.0,7.0,377898.4078169203,2506478.938901827
CDP,"El Verano, CA",0622510,CA,-122.49155899300196,38.2974570548926,5.0,60.0,1734900.9195586236,22423582.072767444
CDP,"East Alto Bonito, TX",4821958,TX,-98.63576822390354,26.302274754505437,7.0,44.0,2520291.6890559224,16716286.461752959
CDP,"Los Nopalitos, TX",4844146,TX,-99.20560864114466,27.6195207236241,1.0,3.0,186042.2930790992,1233958.8622285917
CDP,"La Paloma Ranchettes, TX",4841424,TX,-98.62301666610053,26.314791680698157,2.0,13.0,726727.7073402314,4820151.805580437
CDP,"La Presa, TX",4841449,TX,-99.43723592720481,27.39940289297964,3.0,16.0,933118.376224857,6189074.918365281
CDP,"Fetters Hot Springs-Agua Caliente, CA",0623973,CA,-122.48716265159064,38.32758520175144,5.0,61.0,1756628.9657573346,22704416.915682644
CDP,"Buena Vista, TX",4811102,TX,-98.61088340197627,26.294138452898792,1.0,5.0,311039.458741619,2063024.9727884273
city,"Freer, TX",4827432,TX,-98.61805644213868,27.882337809628304,22.0,140.0,8023073.889036154,53214475.933608025
CDP,"Mikes, TX",4848318,TX,-98.63361171699174,26.314659617293596,8.0,48.0,2764472.1987222405,18335857.468427986
CDP,"Glen Ellen, CA",0630028,CA,-122.5412846139026,38.35636865004366,1.0,11.0,328845.6222766466,4250327.334120419
CDP,"Valle Vista, TX",4874670,TX,-98.65465462040655,26.316045603214633,4.0,24.0,1395317.198093244,9254691.46671444
CDP,"Temelec, CA",0678126,CA,-122.49819835751886,38.25775658377766,2.0,22.0,630113.3397626216,8144210.444540776
CDP,"East Lopez, TX",4822150,TX,-98.63785109526671,26.30866083862531,1.0,9.0,505802.484308801,3354825.656683984
town,"Lake City, TX",4840472,TX,-97.88263986891293,28.082173935444988,4.0,26.0,1467989.9688272672,9736706.647272483
CDP,"Kenwood, CA",0638156,CA,-122.53873412117939,38.41540420845791,1.0,15.0,431218.14763595845,5573491.497855491
city,"Orange Grove, TX",4854168,TX,-97.93855252254885,27.956203014375735,12.0,72.0,4133627.199351236,27417023.470141526
CDP,"Penngrove, CA",0656476,CA,-122.67056541194312,38.30059851583025,3.0,36.0,1052974.5465529219,13609688.541275037
city,"Alice, TX",4801852,TX,-98.06523280898875,27.755590280278323,155.0,967.0,55359209.83434946,367179883.94189537
city,"San Diego, TX",4865180,TX,-98.23890612340432,27.760890817060663,39.0,246.0,14072355.32493624,93337419.56325959
CDP,"Mendocino, CA",0646814,CA,-123.78945573045598,39.31137889052921,1.0,13.0,375226.64397004916,4849801.710343247
CDP,"Cleone, CA",0614008,CA,-123.78106292111912,39.49261955502284,1.0,9.0,259065.1662154014,3348415.434758144
city,"George West, TX",4829348,TX,-98.11830426989593,28.329999964770813,21.0,132.0,7537619.780532881,49994614.5274803
CDP,"Manchester, CA",0645386,CA,-123.69096092449102,38.97438497412364,0.0,3.0,81898.02028744947,1058531.3309880584
CDP,"Rancho Banquete, TX",4860529,TX,-97.8454856145066,27.809395369933025,3.0,22.0,1247064.745795837,8271380.49837603
CDP,"Anchor Bay, CA",0602028,CA,-123.57008461362479,38.812723159234054,0.0,5.0,142067.99437618788,1836227.8190609175
CDP,"Lakeshore Gardens-Hidden Acres, TX",4840714,TX,-97.86524688320019,28.123406281822998,4.0,25.0,1453455.4146804628,9640303.611160874
CDP,"Albion, CA",0600716,CA,-123.75633061784141,39.22559647467556,0.0,2.0,70198.30310352813,907312.5694183357
CDP,"Edgewater Estates, TX",4822593,TX,-97.8649721429993,28.09688213868917,1.0,4.0,206390.66888462572,1368923.1127848444
CDP,"Little River, CA",0641866,CA,-123.78150564340807,39.27028313063479,0.0,2.0,48888.103947099946,631878.3965591982
CDP,"Paisano Park, TX",4854666,TX,-97.85920725549695,28.095074604486143,1.0,7.0,374991.49698755937,2487198.3316795058
CDP,"Alice Acres, TX",4801858,TX,-98.10797279561271,27.71189300870485,4.0,25.0,1453455.4146804628,9640303.611160874
CDP,"Caspar, CA",0611768,CA,-123.80406611822548,39.36303359063731,1.0,7.0,213519.8386065647,2759742.398647438
CDP,"Coyote Acres, TX",4817426,TX,-98.13463279710002,27.71317843725788,4.0,27.0,1569731.8478548995,10411527.900053743
CDP,"Comptche, CA",0615030,CA,-123.58971484093723,39.26513461238363,0.0,2.0,66437.67972298198,858706.5389137821
CDP,"K-Bar Ranch, TX",4838518,TX,-97.92672890521156,27.992807956856876,3.0,19.0,1110439.9368158735,7365191.958926909
CDP,"Black Point-Green Point, CA",0606982,CA,-122.5199957819931,38.11154910122472,2.0,19.0,550304.5546865865,7112682.463833025
city,"Williams, CA",0685586,CA,-122.13725377419594,39.148679471556626,6.0,77.0,2215007.1711416817,28628951.96718213
CDP,"Owl Ranch, TX",4854509,TX,-98.09344776727495,27.892735428060593,2.0,12.0,662775.6690942909,4395978.446689358
city,"Colusa, CA",0614946,CA,-122.00957523496123,39.20489051256571,7.0,87.0,2521706.9001773344,32593043.788331285
CDP,"Rancho Alegre, TX",4860518,TX,-98.10268087998796,27.73929207749389,14.0,87.0,4996979.715671431,33143363.815171093
city,"Willits, CA",0685600,CA,-123.34930755411511,39.40496750461187,6.0,72.0,2068342.8593003824,26733316.777504537
CDP,"Sandia, TX",4865168,TX,-97.87012101318903,28.019867362960422,3.0,21.0,1174391.9750618138,7789365.317817987
city,"Ukiah, CA",0681134,CA,-123.21001512616434,39.146126358546525,19.0,233.0,6712294.887232593,86756363.7805723
CDP,"Westdale, TX",4877422,TX,-97.99372826056205,27.96572627720046,3.0,20.0,1139509.045109483,7557998.031150126
city,"Willows, CA",0685684,CA,-122.19914697774615,39.51470444153686,7.0,91.0,2616558.178775554,33818995.89105725
CDP,"Alfred, TX",4801816,TX,-97.97983953129183,27.87414524521435,1.0,5.0,281970.3504480098,1870218.9005652098
CDP,"Lodoga, CA",0642230,CA,-122.50594513910929,39.30427260035403,0.0,3.0,83151.5614142982,1074733.341156243
CDP,"Maxwell, CA",0646338,CA,-122.19467607843715,39.27707855282923,1.0,16.0,462974.5228494593,5983942.422116168
CDP,"South La Paloma, TX",4869072,TX,-97.96852598610347,27.894615688863876,3.0,19.0,1069743.1852048207,7095263.457814404
CDP,"Princeton, CA",0658758,CA,-122.02122470548183,39.40285072579491,0.0,4.0,127861.19493856908,1652605.0371548259
CDP,"Amargosa, TX",4802290,TX,-98.10863837542885,27.891635477227982,2.0,15.0,857538.694661473,5687779.130584916
CDP,"Stonyford, CA",0675154,CA,-122.54446825924416,39.37034225696953,0.0,2.0,62677.05634243581,810100.5084092283
CDP,"Falcon Heights, TX",4825344,TX,-99.12249311632146,26.560371983747732,0.0,3.0,159880.0956148509,1060433.3972276961
CDP,"Falcon Village, TX",4825356,TX,-99.13415094748545,26.565110254187342,0.0,2.0,142438.63063868537,944749.7538937657
CDP,"Laytonville, CA",0640928,CA,-123.49457496278008,39.67150409375919,1.0,18.0,513116.1679234079,6632022.82884355
CDP,"La Loma Falcon, TX",4841086,TX,-99.09595875118669,26.536833305609896,1.0,5.0,287784.1721067316,1908780.1150098534
CDP,"Talmage, CA",0677784,CA,-123.1647620912847,39.13138864570325,1.0,16.0,450439.11158097215,5821922.320434322
CDP,"Jardin San Julian, TX",4837390,TX,-99.09985134611027,26.52537533545492,0.0,1.0,66858.9490753013,443453.96611340024
CDP,"Potter Valley, CA",0658506,CA,-123.11224489516732,39.319044255310615,1.0,9.0,259900.8602999672,3359216.7748702667
CDP,"Salineo North, TX",4864322,TX,-99.0903461703622,26.52548816137077,1.0,6.0,343015.4778645892,2275111.652233966
CDP,"Brooktrails, CA",0608530,CA,-123.39626122896429,39.44287710513898,4.0,47.0,1360509.9696731404,17584581.70253632
CDP,"Redwood Valley, CA",0660214,CA,-123.2023382985226,39.26899511836154,2.0,26.0,736664.3355447624,9521381.308836464
CDP,"Indio, TX",4835966,TX,-99.09586629604284,26.548876992417007,0.0,3.0,151159.36312676812,1002591.575560731
CDP,"Chapeno, TX",4814290,TX,-99.13388045736791,26.55087932800518,0.0,2.0,142438.63063868537,944749.7538937657
CDP,"Calpella, CA",0609990,CA,-123.19703856237979,39.232209939531565,1.0,9.0,267422.1070610595,3456428.8358793743
CDP,"Falconaire, TX",4825338,TX,-99.11688110919049,26.551120683527603,1.0,7.0,401153.69445180777,2660723.7966804015
CDP,"Hamilton City, CA",0631890,CA,-122.01253583496866,39.7422305446478,2.0,25.0,729143.0887836701,9424169.247827357
CDP,"H. Cuellar Estates, TX",4832910,TX,-99.12578718604688,26.561134880416212,0.0,1.0,61045.12741657944,404892.75166875677
CDP,"Elk Creek, CA",0622006,CA,-122.53753176430278,39.60013713622342,0.0,2.0,68109.0678921136,880309.2191380282
CDP,"Olivia Lopez Gutierrez, TX",4853946,TX,-98.71668484450484,26.327625283753605,1.0,5.0,296504.90459481435,1966621.9366768182
CDP,"Artois, CA",0602910,CA,-122.1897572145944,39.63318030824485,0.0,4.0,116579.32479693062,1506786.9456411647
CDP,"Falcon Lake Estates, TX",4825348,TX,-99.25847903301998,26.871909293023567,9.0,55.0,3148184.428197882,20880897.621774454
CDP,"Meridian, CA",0646926,CA,-121.90789444790677,39.140436504517076,0.0,5.0,154603.40564467502,1998247.9207427632
